$GNGGA,101536.00,5051.87818,N,00005.24154,W,2,12,0.59,62.6,M,45.4,M,,0000*67
$GNGGA,101536.00,5051.87818,N,00005.24154,W,2,12,0.59,62.6,M,45.4,M,,0000*67
$GNGGA,101536.00,5051.87818,N,00005.24154,W,2,12,0.59,62.6,M,45.4,M,,0000*67
$GNGGA,101536.00,5051.87818,N,00005.24154,W,2,12,0.59,62.6,M,45.4,M,,0000*67
$GNGGA,101536.00,5051.87818,N,00005.24154,W,2,12,0.59,62.6,M,45.4,M,,0000*67
$GNGGA,101536.00,5051.87818,N,00005.24154,W,2,12,0.59,62.6,M,45.4,M,,0000*67
$GNGGA,101536.00,5051.87818,N,00005.24154,W,2,12,0.59,62.6,M,45.4,M,,0000*67
$GNGGA,101536.00,5051.87818,N,00005.24154,W,2,12,0.59,62.6,M,45.4,M,,0000*67
$GNGGA,101536.00,5051.87818,N,00005.24154,W,2,12,0.59,62.6,M,45.4,M,,0000*67
$GNGGA,101536.00,5051.87818,N,00005.24154,W,2,12,0.59,62.6,M,45.4,M,,0000*67
$GNGGA,101536.00,5051.87818,N,00005.24154,W,2,12,0.59,62.6,M,45.4,M,,0000*67
$GNGGA,101536.00,5051.87818,N,00005.24154,W,2,12,0.59,62.6,M,45.4,M,,0000*67
$GNGGA,101536.00,5051.87818,N,00005.24154,W,2,12,0.59,62.6,M,45.4,M,,0000*67
$GNGGA,101536.00,5051.87818,N,00005.24154,W,2,12,0.59,62.6,M,45.4,M,,0000*67
$GNGGA,101536.00,5051.87818,N,00005.24154,W,2,12,0.59,62.6,M,45.4,M,,0000*67
$GNGGA,101536.00,5051.87818,N,00005.24154,W,2,12,0.59,62.6,M,45.4,M,,0000*67
$GNGGA,101536.00,5051.87818,N,00005.24154,W,2,12,0.59,62.6,M,45.4,M,,0000*67
$GNGGA,101536.00,5051.87818,N,00005.24154,W,2,12,0.59,62.6,M,45.4,M,,0000*67
$GNGGA,101536.00,5051.87818,N,00005.24154,W,2,12,0.59,62.6,M,45.4,M,,0000*67
$GNGGA,101536.00,5051.87818,N,00005.24154,W,2,12,0.59,62.6,M,45.4,M,,0000*67
$GNGGA,101536.00,5051.87818,N,00005.24154,W,2,12,0.59,62.6,M,45.4,M,,0000*67
$GNGGA,101536.00,5051.87818,N,00005.24154,W,2,12,0.59,62.6,M,45.4,M,,0000*67
$GNGGA,101536.00,5051.87818,N,00005.24154,W,2,12,0.59,62.6,M,45.4,M,,0000*67
$GNGGA,101536.00,5051.87818,N,00005.24154,W,2,12,0.59,62.6,M,45.4,M,,0000*67
$GNGGA,101536.00,5051.87818,N,00005.24154,W,2,12,0.59,62.6,M,45.4,M,,0000*67
$GNGGA,101536.00,5051.87818,N,00005.24154,W,2,12,0.59,62.6,M,45.4,M,,0000*67
$GNGGA,101536.00,5051.87818,N,00005.24154,W,2,12,0.59,62.6,M,45.4,M,,0000*67
$GNGGA,101536.00,5051.87818,N,00005.24154,W,2,12,0.59,62.6,M,45.4,M,,0000*67
$GNGGA,101536.00,5051.87818,N,00005.24154,W,2,12,0.59,62.6,M,45.4,M,,0000*67
$GNGGA,101536.00,5051.87818,N,00005.24154,W,2,12,0.59,62.6,M,45.4,M,,0000*67
$GNGGA,101536.00,5051.87818,N,00005.24154,W,2,12,0.59,62.6,M,45.4,M,,0000*67
$GNGGA,101536.00,5051.87818,N,00005.24154,W,2,12,0.59,62.6,M,45.4,M,,0000*67
$GNGGA,101536.00,5051.87818,N,00005.24154,W,2,12,0.59,62.6,M,45.4,M,,0000*67
$GNGGA,101536.00,5051.87818,N,00005.24154,W,2,12,0.59,62.6,M,45.4,M,,0000*67
$GNGGA,101536.00,5051.87818,N,00005.24154,W,2,12,0.59,62.6,M,45.4,M,,0000*67
$GNGGA,101536.00,5051.87818,N,00005.24154,W,2,12,0.59,62.6,M,45.4,M,,0000*67
$GNGGA,101536.00,5051.87818,N,00005.24154,W,2,12,0.59,62.6,M,45.4,M,,0000*67
$GNGGA,101536.00,5051.87818,N,00005.24154,W,2,12,0.59,62.6,M,45.4,M,,0000*67
$GNGGA,101536.00,5051.87818,N,00005.24154,W,2,12,0.59,62.6,M,45.4,M,,0000*67
$GNGGA,101536.00,5051.87818,N,00005.24154,W,2,12,0.59,62.6,M,45.4,M,,0000*67
$GNGGA,101536.00,5051.87818,N,00005.24154,W,2,12,0.59,62.6,M,45.4,M,,0000*67
$GNGGA,101536.00,5051.87818,N,00005.24154,W,2,12,0.59,62.6,M,45.4,M,,0000*67
$GNGGA,101536.00,5051.87818,N,00005.24154,W,2,12,0.59,62.6,M,45.4,M,,0000*67
$GNGGA,101536.00,5051.87818,N,00005.24154,W,2,12,0.59,62.6,M,45.4,M,,0000*67
$GNGGA,101536.00,5051.87818,N,00005.24154,W,2,12,0.59,62.6,M,45.4,M,,0000*67
$GNGGA,101536.00,5051.87818,N,00005.24154,W,2,12,0.59,62.6,M,45.4,M,,0000*67
$GNGGA,101536.00,5051.87818,N,00005.24154,W,2,12,0.59,62.6,M,45.4,M,,0000*67
$GNGGA,101536.00,5051.87818,N,00005.24154,W,2,12,0.59,62.6,M,45.4,M,,0000*67
$GNGGA,101536.00,5051.87818,N,00005.24154,W,2,12,0.59,62.6,M,45.4,M,,0000*67
$GNGGA,101536.00,5051.87818,N,00005.24154,W,2,12,0.59,62.6,M,45.4,M,,0000*67
$GNGGA,101536.00,5051.87818,N,00005.24154,W,2,12,0.59,62.6,M,45.4,M,,0000*67
$GNGGA,101536.00,5051.87818,N,00005.24154,W,2,12,0.59,62.6,M,45.4,M,,0000*67
$GNGGA,101536.00,5051.87818,N,00005.24154,W,2,12,0.59,62.6,M,45.4,M,,0000*67
$GNGGA,101536.00,5051.87818,N,00005.24154,W,2,12,0.59,62.6,M,45.4,M,,0000*67
$GNGGA,101536.00,5051.87818,N,00005.24154,W,2,12,0.59,62.6,M,45.4,M,,0000*67
$GNGGA,101536.00,5051.87818,N,00005.24154,W,2,12,0.59,62.6,M,45.4,M,,0000*67
$GNGGA,101536.00,5051.87818,N,00005.24154,W,2,12,0.59,62.6,M,45.4,M,,0000*67
$GNGGA,101536.00,5051.87818,N,00005.24154,W,2,12,0.59,62.6,M,45.4,M,,0000*67
$GNGGA,101536.00,5051.87818,N,00005.24154,W,2,12,0.59,62.6,M,45.4,M,,0000*67
$GNGGA,101536.00,5051.87818,N,00005.24154,W,2,12,0.59,62.6,M,45.4,M,,0000*67
$GNGGA,101536.00,5051.87818,N,00005.24154,W,2,12,0.59,62.6,M,45.4,M,,0000*67
$GNGGA,101536.00,5051.87818,N,00005.24154,W,2,12,0.59,62.6,M,45.4,M,,0000*67
$GNGGA,101536.00,5051.87818,N,00005.24154,W,2,12,0.59,62.6,M,45.4,M,,0000*67
$GNGGA,101536.00,5051.87818,N,00005.24154,W,2,12,0.59,62.6,M,45.4,M,,0000*67
$GNGGA,101536.00,5051.87818,N,00005.24154,W,2,12,0.59,62.6,M,45.4,M,,0000*67
$GNGGA,101536.00,5051.87818,N,00005.24154,W,2,12,0.59,62.6,M,45.4,M,,0000*67
$GNGGA,101536.00,5051.87818,N,00005.24154,W,2,12,0.59,62.6,M,45.4,M,,0000*67
$GNGGA,101536.00,5051.87818,N,00005.24154,W,2,12,0.59,62.6,M,45.4,M,,0000*67
$GNGGA,101536.00,5051.87818,N,00005.24154,W,2,12,0.59,62.6,M,45.4,M,,0000*67
$GNGGA,101536.00,5051.87818,N,00005.24154,W,2,12,0.59,62.6,M,45.4,M,,0000*67
$GNGGA,101536.00,5051.87818,N,00005.24154,W,2,12,0.59,62.6,M,45.4,M,,0000*67
$GNGGA,101536.00,5051.87818,N,00005.24154,W,2,12,0.59,62.6,M,45.4,M,,0000*67
$GNGGA,101536.00,5051.87818,N,00005.24154,W,2,12,0.59,62.6,M,45.4,M,,0000*67
$GNGGA,101536.00,5051.87818,N,00005.24154,W,2,12,0.59,62.6,M,45.4,M,,0000*67
$GNGGA,101536.00,5051.87818,N,00005.24154,W,2,12,0.59,62.6,M,45.4,M,,0000*67
$GNGGA,101536.00,5051.87818,N,00005.24154,W,2,12,0.59,62.6,M,45.4,M,,0000*67
$GNGGA,101537.00,5051.87818,N,00005.24154,W,2,12,0.59,62.6,M,45.4,M,,0000*66
$GNGGA,101537.00,5051.87818,N,00005.24154,W,2,12,0.59,62.6,M,45.4,M,,0000*66
$GNGGA,101537.00,5051.87818,N,00005.24154,W,2,12,0.59,62.6,M,45.4,M,,0000*66
$GNGGA,101537.00,5051.87818,N,00005.24154,W,2,12,0.59,62.6,M,45.4,M,,0000*66
$GNGGA,101537.00,5051.87818,N,00005.24154,W,2,12,0.59,62.6,M,45.4,M,,0000*66
$GNGGA,101537.00,5051.87818,N,00005.24154,W,2,12,0.59,62.6,M,45.4,M,,0000*66
$GNGGA,101537.00,5051.87818,N,00005.24154,W,2,12,0.59,62.6,M,45.4,M,,0000*66
$GNGGA,101537.00,5051.87818,N,00005.24154,W,2,12,0.59,62.6,M,45.4,M,,0000*66
$GNGGA,101537.00,5051.87818,N,00005.24154,W,2,12,0.59,62.6,M,45.4,M,,0000*66
$GNGGA,101537.00,5051.87818,N,00005.24154,W,2,12,0.59,62.6,M,45.4,M,,0000*66
$GNGGA,101537.00,5051.87818,N,00005.24154,W,2,12,0.59,62.6,M,45.4,M,,0000*66
$GNGGA,101537.00,5051.87818,N,00005.24154,W,2,12,0.59,62.6,M,45.4,M,,0000*66
$GNGGA,101537.00,5051.87818,N,00005.24154,W,2,12,0.59,62.6,M,45.4,M,,0000*66
$GNGGA,101537.00,5051.87818,N,00005.24154,W,2,12,0.59,62.6,M,45.4,M,,0000*66
$GNGGA,101537.00,5051.87818,N,00005.24154,W,2,12,0.59,62.6,M,45.4,M,,0000*66
$GNGGA,101537.00,5051.87818,N,00005.24154,W,2,12,0.59,62.6,M,45.4,M,,0000*66
$GNGGA,101537.00,5051.87818,N,00005.24154,W,2,12,0.59,62.6,M,45.4,M,,0000*66
$GNGGA,101537.00,5051.87818,N,00005.24154,W,2,12,0.59,62.6,M,45.4,M,,0000*66
$GNGGA,101537.00,5051.87818,N,00005.24154,W,2,12,0.59,62.6,M,45.4,M,,0000*66
$GNGGA,101537.00,5051.87818,N,00005.24154,W,2,12,0.59,62.6,M,45.4,M,,0000*66
$GNGGA,101537.00,5051.87818,N,00005.24154,W,2,12,0.59,62.6,M,45.4,M,,0000*66
$GNGGA,101537.00,5051.87818,N,00005.24154,W,2,12,0.59,62.6,M,45.4,M,,0000*66
$GNGGA,101537.00,5051.87818,N,00005.24154,W,2,12,0.59,62.6,M,45.4,M,,0000*66
$GNGGA,101537.00,5051.87818,N,00005.24154,W,2,12,0.59,62.6,M,45.4,M,,0000*66
$GNGGA,101537.00,5051.87818,N,00005.24154,W,2,12,0.59,62.6,M,45.4,M,,0000*66
$GNGGA,101537.00,5051.87818,N,00005.24154,W,2,12,0.59,62.6,M,45.4,M,,0000*66
$GNGGA,101537.00,5051.87818,N,00005.24154,W,2,12,0.59,62.6,M,45.4,M,,0000*66
$GNGGA,101537.00,5051.87818,N,00005.24154,W,2,12,0.59,62.6,M,45.4,M,,0000*66
$GNGGA,101537.00,5051.87818,N,00005.24154,W,2,12,0.59,62.6,M,45.4,M,,0000*66
$GNGGA,101537.00,5051.87818,N,00005.24154,W,2,12,0.59,62.6,M,45.4,M,,0000*66
$GNGGA,101537.00,5051.87818,N,00005.24154,W,2,12,0.59,62.6,M,45.4,M,,0000*66
$GNGGA,101537.00,5051.87818,N,00005.24154,W,2,12,0.59,62.6,M,45.4,M,,0000*66
$GNGGA,101537.00,5051.87818,N,00005.24154,W,2,12,0.59,62.6,M,45.4,M,,0000*66
$GNGGA,101537.00,5051.87818,N,00005.24154,W,2,12,0.59,62.6,M,45.4,M,,0000*66
$GNGGA,101537.00,5051.87818,N,00005.24154,W,2,12,0.59,62.6,M,45.4,M,,0000*66
$GNGGA,101537.00,5051.87818,N,00005.24154,W,2,12,0.59,62.6,M,45.4,M,,0000*66
$GNGGA,101537.00,5051.87818,N,00005.24154,W,2,12,0.59,62.6,M,45.4,M,,0000*66
$GNGGA,101537.00,5051.87818,N,00005.24154,W,2,12,0.59,62.6,M,45.4,M,,0000*66
$GNGGA,101537.00,5051.87818,N,00005.24154,W,2,12,0.59,62.6,M,45.4,M,,0000*66
$GNGGA,101537.00,5051.87818,N,00005.24154,W,2,12,0.59,62.6,M,45.4,M,,0000*66
$GNGGA,101537.00,5051.87818,N,00005.24154,W,2,12,0.59,62.6,M,45.4,M,,0000*66
$GNGGA,101537.00,5051.87818,N,00005.24154,W,2,12,0.59,62.6,M,45.4,M,,0000*66
$GNGGA,101537.00,5051.87818,N,00005.24154,W,2,12,0.59,62.6,M,45.4,M,,0000*66
$GNGGA,101537.00,5051.87818,N,00005.24154,W,2,12,0.59,62.6,M,45.4,M,,0000*66
$GNGGA,101537.00,5051.87818,N,00005.24154,W,2,12,0.59,62.6,M,45.4,M,,0000*66
$GNGGA,101537.00,5051.87818,N,00005.24154,W,2,12,0.59,62.6,M,45.4,M,,0000*66
$GNGGA,101537.00,5051.87818,N,00005.24154,W,2,12,0.59,62.6,M,45.4,M,,0000*66
$GNGGA,101537.00,5051.87818,N,00005.24154,W,2,12,0.59,62.6,M,45.4,M,,0000*66
$GNGGA,101537.00,5051.87818,N,00005.24154,W,2,12,0.59,62.6,M,45.4,M,,0000*66
$GNGGA,101537.00,5051.87818,N,00005.24154,W,2,12,0.59,62.6,M,45.4,M,,0000*66
$GNGGA,101537.00,5051.87818,N,00005.24154,W,2,12,0.59,62.6,M,45.4,M,,0000*66
$GNGGA,101537.00,5051.87818,N,00005.24154,W,2,12,0.59,62.6,M,45.4,M,,0000*66
$GNGGA,101537.00,5051.87818,N,00005.24154,W,2,12,0.59,62.6,M,45.4,M,,0000*66
$GNGGA,101537.00,5051.87818,N,00005.24154,W,2,12,0.59,62.6,M,45.4,M,,0000*66
$GNGGA,101537.00,5051.87818,N,00005.24154,W,2,12,0.59,62.6,M,45.4,M,,0000*66
$GNGGA,101537.00,5051.87818,N,00005.24154,W,2,12,0.59,62.6,M,45.4,M,,0000*66
$GNGGA,101537.00,5051.87818,N,00005.24154,W,2,12,0.59,62.6,M,45.4,M,,0000*66
$GNGGA,101537.00,5051.87818,N,00005.24154,W,2,12,0.59,62.6,M,45.4,M,,0000*66
$GNGGA,101537.00,5051.87818,N,00005.24154,W,2,12,0.59,62.6,M,45.4,M,,0000*66
$GNGGA,101537.00,5051.87818,N,00005.24154,W,2,12,0.59,62.6,M,45.4,M,,0000*66
$GNGGA,101537.00,5051.87818,N,00005.24154,W,2,12,0.59,62.6,M,45.4,M,,0000*66
$GNGGA,101537.00,5051.87818,N,00005.24154,W,2,12,0.59,62.6,M,45.4,M,,0000*66
$GNGGA,101537.00,5051.87818,N,00005.24154,W,2,12,0.59,62.6,M,45.4,M,,0000*66
$GNGGA,101537.00,5051.87818,N,00005.24154,W,2,12,0.59,62.6,M,45.4,M,,0000*66
$GNGGA,101537.00,5051.87818,N,00005.24154,W,2,12,0.59,62.6,M,45.4,M,,0000*66
$GNGGA,101537.00,5051.87818,N,00005.24154,W,2,12,0.59,62.6,M,45.4,M,,0000*66
$GNGGA,101537.00,5051.87818,N,00005.24154,W,2,12,0.59,62.6,M,45.4,M,,0000*66
$GNGGA,101537.00,5051.87818,N,00005.24154,W,2,12,0.59,62.6,M,45.4,M,,0000*66
$GNGGA,101537.00,5051.87818,N,00005.24154,W,2,12,0.59,62.6,M,45.4,M,,0000*66
$GNGGA,101537.00,5051.87818,N,00005.24154,W,2,12,0.59,62.6,M,45.4,M,,0000*66
$GNGGA,101537.00,5051.87818,N,00005.24154,W,2,12,0.59,62.6,M,45.4,M,,0000*66
$GNGGA,101537.00,5051.87818,N,00005.24154,W,2,12,0.59,62.6,M,45.4,M,,0000*66
$GNGGA,101537.00,5051.87818,N,00005.24154,W,2,12,0.59,62.6,M,45.4,M,,0000*66
$GNGGA,101537.00,5051.87818,N,00005.24154,W,2,12,0.59,62.6,M,45.4,M,,0000*66
$GNGGA,101537.00,5051.87818,N,00005.24154,W,2,12,0.59,62.6,M,45.4,M,,0000*66
$GNGGA,101537.00,5051.87818,N,00005.24154,W,2,12,0.59,62.6,M,45.4,M,,0000*66
$GNGGA,101538.00,5051.87818,N,00005.24154,W,2,12,0.59,62.6,M,45.4,M,,0000*69
$GNGGA,101538.00,5051.87818,N,00005.24154,W,2,12,0.59,62.6,M,45.4,M,,0000*69
$GNGGA,101538.00,5051.87818,N,00005.24154,W,2,12,0.59,62.6,M,45.4,M,,0000*69
$GNGGA,101538.00,5051.87818,N,00005.24154,W,2,12,0.59,62.6,M,45.4,M,,0000*69
$GNGGA,101538.00,5051.87818,N,00005.24154,W,2,12,0.59,62.6,M,45.4,M,,0000*69
$GNGGA,101538.00,5051.87818,N,00005.24154,W,2,12,0.59,62.6,M,45.4,M,,0000*69
$GNGGA,101538.00,5051.87818,N,00005.24154,W,2,12,0.59,62.6,M,45.4,M,,0000*69
$GNGGA,101538.00,5051.87818,N,00005.24154,W,2,12,0.59,62.6,M,45.4,M,,0000*69
$GNGGA,101538.00,5051.87818,N,00005.24154,W,2,12,0.59,62.6,M,45.4,M,,0000*69
$GNGGA,101538.00,5051.87818,N,00005.24154,W,2,12,0.59,62.6,M,45.4,M,,0000*69
$GNGGA,101538.00,5051.87818,N,00005.24154,W,2,12,0.59,62.6,M,45.4,M,,0000*69
$GNGGA,101538.00,5051.87818,N,00005.24154,W,2,12,0.59,62.6,M,45.4,M,,0000*69
$GNGGA,101538.00,5051.87818,N,00005.24154,W,2,12,0.59,62.6,M,45.4,M,,0000*69
$GNGGA,101538.00,5051.87818,N,00005.24154,W,2,12,0.59,62.6,M,45.4,M,,0000*69
$GNGGA,101538.00,5051.87818,N,00005.24154,W,2,12,0.59,62.6,M,45.4,M,,0000*69
$GNGGA,101538.00,5051.87818,N,00005.24154,W,2,12,0.59,62.6,M,45.4,M,,0000*69
$GNGGA,101538.00,5051.87818,N,00005.24154,W,2,12,0.59,62.6,M,45.4,M,,0000*69
$GNGGA,101538.00,5051.87818,N,00005.24154,W,2,12,0.59,62.6,M,45.4,M,,0000*69
$GNGGA,101538.00,5051.87818,N,00005.24154,W,2,12,0.59,62.6,M,45.4,M,,0000*69
$GNGGA,101538.00,5051.87818,N,00005.24154,W,2,12,0.59,62.6,M,45.4,M,,0000*69
$GNGGA,101538.00,5051.87818,N,00005.24154,W,2,12,0.59,62.6,M,45.4,M,,0000*69
$GNGGA,101538.00,5051.87818,N,00005.24154,W,2,12,0.59,62.6,M,45.4,M,,0000*69
$GNGGA,101538.00,5051.87818,N,00005.24154,W,2,12,0.59,62.6,M,45.4,M,,0000*69
$GNGGA,101538.00,5051.87818,N,00005.24154,W,2,12,0.59,62.6,M,45.4,M,,0000*69
$GNGGA,101538.00,5051.87818,N,00005.24154,W,2,12,0.59,62.6,M,45.4,M,,0000*69
$GNGGA,101538.00,5051.87818,N,00005.24154,W,2,12,0.59,62.6,M,45.4,M,,0000*69
$GNGGA,101538.00,5051.87818,N,00005.24154,W,2,12,0.59,62.6,M,45.4,M,,0000*69
$GNGGA,101538.00,5051.87818,N,00005.24154,W,2,12,0.59,62.6,M,45.4,M,,0000*69
$GNGGA,101538.00,5051.87818,N,00005.24154,W,2,12,0.59,62.6,M,45.4,M,,0000*69
$GNGGA,101538.00,5051.87818,N,00005.24154,W,2,12,0.59,62.6,M,45.4,M,,0000*69
$GNGGA,101538.00,5051.87818,N,00005.24154,W,2,12,0.59,62.6,M,45.4,M,,0000*69
$GNGGA,101538.00,5051.87818,N,00005.24154,W,2,12,0.59,62.6,M,45.4,M,,0000*69
$GNGGA,101538.00,5051.87818,N,00005.24154,W,2,12,0.59,62.6,M,45.4,M,,0000*69
$GNGGA,101538.00,5051.87818,N,00005.24154,W,2,12,0.59,62.6,M,45.4,M,,0000*69
$GNGGA,101538.00,5051.87818,N,00005.24154,W,2,12,0.59,62.6,M,45.4,M,,0000*69
$GNGGA,101538.00,5051.87818,N,00005.24154,W,2,12,0.59,62.6,M,45.4,M,,0000*69
$GNGGA,101538.00,5051.87818,N,00005.24154,W,2,12,0.59,62.6,M,45.4,M,,0000*69
$GNGGA,101538.00,5051.87818,N,00005.24154,W,2,12,0.59,62.6,M,45.4,M,,0000*69
$GNGGA,101538.00,5051.87818,N,00005.24154,W,2,12,0.59,62.6,M,45.4,M,,0000*69
$GNGGA,101538.00,5051.87818,N,00005.24154,W,2,12,0.59,62.6,M,45.4,M,,0000*69
$GNGGA,101538.00,5051.87818,N,00005.24154,W,2,12,0.59,62.6,M,45.4,M,,0000*69
$GNGGA,101538.00,5051.87818,N,00005.24154,W,2,12,0.59,62.6,M,45.4,M,,0000*69
$GNGGA,101538.00,5051.87818,N,00005.24154,W,2,12,0.59,62.6,M,45.4,M,,0000*69
$GNGGA,101538.00,5051.87818,N,00005.24154,W,2,12,0.59,62.6,M,45.4,M,,0000*69
$GNGGA,101538.00,5051.87818,N,00005.24154,W,2,12,0.59,62.6,M,45.4,M,,0000*69
$GNGGA,101538.00,5051.87818,N,00005.24154,W,2,12,0.59,62.6,M,45.4,M,,0000*69
$GNGGA,101538.00,5051.87818,N,00005.24154,W,2,12,0.59,62.6,M,45.4,M,,0000*69
$GNGGA,101538.00,5051.87818,N,00005.24154,W,2,12,0.59,62.6,M,45.4,M,,0000*69
$GNGGA,101538.00,5051.87818,N,00005.24154,W,2,12,0.59,62.6,M,45.4,M,,0000*69
$GNGGA,101538.00,5051.87818,N,00005.24154,W,2,12,0.59,62.6,M,45.4,M,,0000*69
$GNGGA,101538.00,5051.87818,N,00005.24154,W,2,12,0.59,62.6,M,45.4,M,,0000*69
$GNGGA,101538.00,5051.87818,N,00005.24154,W,2,12,0.59,62.6,M,45.4,M,,0000*69
$GNGGA,101538.00,5051.87818,N,00005.24154,W,2,12,0.59,62.6,M,45.4,M,,0000*69
$GNGGA,101538.00,5051.87818,N,00005.24154,W,2,12,0.59,62.6,M,45.4,M,,0000*69
$GNGGA,101538.00,5051.87818,N,00005.24154,W,2,12,0.59,62.6,M,45.4,M,,0000*69
$GNGGA,101538.00,5051.87818,N,00005.24154,W,2,12,0.59,62.6,M,45.4,M,,0000*69
$GNGGA,101538.00,5051.87818,N,00005.24154,W,2,12,0.59,62.6,M,45.4,M,,0000*69
$GNGGA,101538.00,5051.87818,N,00005.24154,W,2,12,0.59,62.6,M,45.4,M,,0000*69
$GNGGA,101538.00,5051.87818,N,00005.24154,W,2,12,0.59,62.6,M,45.4,M,,0000*69
$GNGGA,101538.00,5051.87818,N,00005.24154,W,2,12,0.59,62.6,M,45.4,M,,0000*69
$GNGGA,101538.00,5051.87818,N,00005.24154,W,2,12,0.59,62.6,M,45.4,M,,0000*69
$GNGGA,101538.00,5051.87818,N,00005.24154,W,2,12,0.59,62.6,M,45.4,M,,0000*69
$GNGGA,101538.00,5051.87818,N,00005.24154,W,2,12,0.59,62.6,M,45.4,M,,0000*69
$GNGGA,101538.00,5051.87818,N,00005.24154,W,2,12,0.59,62.6,M,45.4,M,,0000*69
$GNGGA,101538.00,5051.87818,N,00005.24154,W,2,12,0.59,62.6,M,45.4,M,,0000*69
$GNGGA,101538.00,5051.87818,N,00005.24154,W,2,12,0.59,62.6,M,45.4,M,,0000*69
$GNGGA,101538.00,5051.87818,N,00005.24154,W,2,12,0.59,62.6,M,45.4,M,,0000*69
$GNGGA,101538.00,5051.87818,N,00005.24154,W,2,12,0.59,62.6,M,45.4,M,,0000*69
$GNGGA,101538.00,5051.87818,N,00005.24154,W,2,12,0.59,62.6,M,45.4,M,,0000*69
$GNGGA,101538.00,5051.87818,N,00005.24154,W,2,12,0.59,62.6,M,45.4,M,,0000*69
$GNGGA,101538.00,5051.87818,N,00005.24154,W,2,12,0.59,62.6,M,45.4,M,,0000*69
$GNGGA,101538.00,5051.87818,N,00005.24154,W,2,12,0.59,62.6,M,45.4,M,,0000*69
$GNGGA,101538.00,5051.87818,N,00005.24154,W,2,12,0.59,62.6,M,45.4,M,,0000*69
$GNGGA,101538.00,5051.87818,N,00005.24154,W,2,12,0.59,62.6,M,45.4,M,,0000*69
$GNGGA,101538.00,5051.87818,N,00005.24154,W,2,12,0.59,62.6,M,45.4,M,,0000*69
$GNGGA,101538.00,5051.87818,N,00005.24154,W,2,12,0.59,62.6,M,45.4,M,,0000*69
$GNGGA,101539.00,5051.87818,N,00005.24153,W,2,12,0.56,62.7,M,45.4,M,,0000*61
$GNGGA,101539.00,5051.87818,N,00005.24153,W,2,12,0.56,62.7,M,45.4,M,,0000*61
$GNGGA,101539.00,5051.87818,N,00005.24153,W,2,12,0.56,62.7,M,45.4,M,,0000*61
$GNGGA,101539.00,5051.87818,N,00005.24153,W,2,12,0.56,62.7,M,45.4,M,,0000*61
$GNGGA,101539.00,5051.87818,N,00005.24153,W,2,12,0.56,62.7,M,45.4,M,,0000*61
$GNGGA,101539.00,5051.87818,N,00005.24153,W,2,12,0.56,62.7,M,45.4,M,,0000*61
$GNGGA,101539.00,5051.87818,N,00005.24153,W,2,12,0.56,62.7,M,45.4,M,,0000*61
$GNGGA,101539.00,5051.87818,N,00005.24153,W,2,12,0.56,62.7,M,45.4,M,,0000*61
$GNGGA,101539.00,5051.87818,N,00005.24153,W,2,12,0.56,62.7,M,45.4,M,,0000*61
$GNGGA,101539.00,5051.87818,N,00005.24153,W,2,12,0.56,62.7,M,45.4,M,,0000*61
$GNGGA,101539.00,5051.87818,N,00005.24153,W,2,12,0.56,62.7,M,45.4,M,,0000*61
$GNGGA,101539.00,5051.87818,N,00005.24153,W,2,12,0.56,62.7,M,45.4,M,,0000*61
$GNGGA,101539.00,5051.87818,N,00005.24153,W,2,12,0.56,62.7,M,45.4,M,,0000*61
$GNGGA,101539.00,5051.87818,N,00005.24153,W,2,12,0.56,62.7,M,45.4,M,,0000*61
$GNGGA,101539.00,5051.87818,N,00005.24153,W,2,12,0.56,62.7,M,45.4,M,,0000*61
$GNGGA,101539.00,5051.87818,N,00005.24153,W,2,12,0.56,62.7,M,45.4,M,,0000*61
$GNGGA,101539.00,5051.87818,N,00005.24153,W,2,12,0.56,62.7,M,45.4,M,,0000*61
$GNGGA,101539.00,5051.87818,N,00005.24153,W,2,12,0.56,62.7,M,45.4,M,,0000*61
$GNGGA,101539.00,5051.87818,N,00005.24153,W,2,12,0.56,62.7,M,45.4,M,,0000*61
$GNGGA,101539.00,5051.87818,N,00005.24153,W,2,12,0.56,62.7,M,45.4,M,,0000*61
$GNGGA,101539.00,5051.87818,N,00005.24153,W,2,12,0.56,62.7,M,45.4,M,,0000*61
$GNGGA,101539.00,5051.87818,N,00005.24153,W,2,12,0.56,62.7,M,45.4,M,,0000*61
$GNGGA,101539.00,5051.87818,N,00005.24153,W,2,12,0.56,62.7,M,45.4,M,,0000*61
$GNGGA,101539.00,5051.87818,N,00005.24153,W,2,12,0.56,62.7,M,45.4,M,,0000*61
$GNGGA,101539.00,5051.87818,N,00005.24153,W,2,12,0.56,62.7,M,45.4,M,,0000*61
$GNGGA,101539.00,5051.87818,N,00005.24153,W,2,12,0.56,62.7,M,45.4,M,,0000*61
$GNGGA,101539.00,5051.87818,N,00005.24153,W,2,12,0.56,62.7,M,45.4,M,,0000*61
$GNGGA,101539.00,5051.87818,N,00005.24153,W,2,12,0.56,62.7,M,45.4,M,,0000*61
$GNGGA,101539.00,5051.87818,N,00005.24153,W,2,12,0.56,62.7,M,45.4,M,,0000*61
$GNGGA,101539.00,5051.87818,N,00005.24153,W,2,12,0.56,62.7,M,45.4,M,,0000*61
$GNGGA,101539.00,5051.87818,N,00005.24153,W,2,12,0.56,62.7,M,45.4,M,,0000*61
$GNGGA,101539.00,5051.87818,N,00005.24153,W,2,12,0.56,62.7,M,45.4,M,,0000*61
$GNGGA,101539.00,5051.87818,N,00005.24153,W,2,12,0.56,62.7,M,45.4,M,,0000*61
$GNGGA,101539.00,5051.87818,N,00005.24153,W,2,12,0.56,62.7,M,45.4,M,,0000*61
$GNGGA,101539.00,5051.87818,N,00005.24153,W,2,12,0.56,62.7,M,45.4,M,,0000*61
$GNGGA,101539.00,5051.87818,N,00005.24153,W,2,12,0.56,62.7,M,45.4,M,,0000*61
$GNGGA,101539.00,5051.87818,N,00005.24153,W,2,12,0.56,62.7,M,45.4,M,,0000*61
$GNGGA,101539.00,5051.87818,N,00005.24153,W,2,12,0.56,62.7,M,45.4,M,,0000*61
$GNGGA,101539.00,5051.87818,N,00005.24153,W,2,12,0.56,62.7,M,45.4,M,,0000*61
$GNGGA,101539.00,5051.87818,N,00005.24153,W,2,12,0.56,62.7,M,45.4,M,,0000*61
$GNGGA,101539.00,5051.87818,N,00005.24153,W,2,12,0.56,62.7,M,45.4,M,,0000*61
$GNGGA,101539.00,5051.87818,N,00005.24153,W,2,12,0.56,62.7,M,45.4,M,,0000*61
$GNGGA,101539.00,5051.87818,N,00005.24153,W,2,12,0.56,62.7,M,45.4,M,,0000*61
$GNGGA,101539.00,5051.87818,N,00005.24153,W,2,12,0.56,62.7,M,45.4,M,,0000*61
$GNGGA,101539.00,5051.87818,N,00005.24153,W,2,12,0.56,62.7,M,45.4,M,,0000*61
$GNGGA,101539.00,5051.87818,N,00005.24153,W,2,12,0.56,62.7,M,45.4,M,,0000*61
$GNGGA,101539.00,5051.87818,N,00005.24153,W,2,12,0.56,62.7,M,45.4,M,,0000*61
$GNGGA,101539.00,5051.87818,N,00005.24153,W,2,12,0.56,62.7,M,45.4,M,,0000*61
$GNGGA,101539.00,5051.87818,N,00005.24153,W,2,12,0.56,62.7,M,45.4,M,,0000*61
$GNGGA,101539.00,5051.87818,N,00005.24153,W,2,12,0.56,62.7,M,45.4,M,,0000*61
$GNGGA,101539.00,5051.87818,N,00005.24153,W,2,12,0.56,62.7,M,45.4,M,,0000*61
$GNGGA,101539.00,5051.87818,N,00005.24153,W,2,12,0.56,62.7,M,45.4,M,,0000*61
$GNGGA,101539.00,5051.87818,N,00005.24153,W,2,12,0.56,62.7,M,45.4,M,,0000*61
$GNGGA,101539.00,5051.87818,N,00005.24153,W,2,12,0.56,62.7,M,45.4,M,,0000*61
$GNGGA,101539.00,5051.87818,N,00005.24153,W,2,12,0.56,62.7,M,45.4,M,,0000*61
$GNGGA,101539.00,5051.87818,N,00005.24153,W,2,12,0.56,62.7,M,45.4,M,,0000*61
$GNGGA,101539.00,5051.87818,N,00005.24153,W,2,12,0.56,62.7,M,45.4,M,,0000*61
$GNGGA,101539.00,5051.87818,N,00005.24153,W,2,12,0.56,62.7,M,45.4,M,,0000*61
$GNGGA,101539.00,5051.87818,N,00005.24153,W,2,12,0.56,62.7,M,45.4,M,,0000*61
$GNGGA,101539.00,5051.87818,N,00005.24153,W,2,12,0.56,62.7,M,45.4,M,,0000*61
$GNGGA,101539.00,5051.87818,N,00005.24153,W,2,12,0.56,62.7,M,45.4,M,,0000*61
$GNGGA,101539.00,5051.87818,N,00005.24153,W,2,12,0.56,62.7,M,45.4,M,,0000*61
$GNGGA,101539.00,5051.87818,N,00005.24153,W,2,12,0.56,62.7,M,45.4,M,,0000*61
$GNGGA,101539.00,5051.87818,N,00005.24153,W,2,12,0.56,62.7,M,45.4,M,,0000*61
$GNGGA,101539.00,5051.87818,N,00005.24153,W,2,12,0.56,62.7,M,45.4,M,,0000*61
$GNGGA,101539.00,5051.87818,N,00005.24153,W,2,12,0.56,62.7,M,45.4,M,,0000*61
$GNGGA,101539.00,5051.87818,N,00005.24153,W,2,12,0.56,62.7,M,45.4,M,,0000*61
$GNGGA,101539.00,5051.87818,N,00005.24153,W,2,12,0.56,62.7,M,45.4,M,,0000*61
$GNGGA,101539.00,5051.87818,N,00005.24153,W,2,12,0.56,62.7,M,45.4,M,,0000*61
$GNGGA,101539.00,5051.87818,N,00005.24153,W,2,12,0.56,62.7,M,45.4,M,,0000*61
$GNGGA,101539.00,5051.87818,N,00005.24153,W,2,12,0.56,62.7,M,45.4,M,,0000*61
$GNGGA,101539.00,5051.87818,N,00005.24153,W,2,12,0.56,62.7,M,45.4,M,,0000*61
$GNGGA,101539.00,5051.87818,N,00005.24153,W,2,12,0.56,62.7,M,45.4,M,,0000*61
$GNGGA,101539.00,5051.87818,N,00005.24153,W,2,12,0.56,62.7,M,45.4,M,,0000*61
$GNGGA,101539.00,5051.87818,N,00005.24153,W,2,12,0.56,62.7,M,45.4,M,,0000*61
$GNGGA,101539.00,5051.87818,N,00005.24153,W,2,12,0.56,62.7,M,45.4,M,,0000*61
$GNGGA,101552.00,5051.87808,N,00005.24154,W,2,12,0.55,63.6,M,45.4,M,,0000*69
$GNGGA,101552.00,5051.87808,N,00005.24154,W,2,12,0.55,63.6,M,45.4,M,,0000*69
$GNGGA,101552.00,5051.87808,N,00005.24154,W,2,12,0.55,63.6,M,45.4,M,,0000*69
$GNGGA,101552.00,5051.87808,N,00005.24154,W,2,12,0.55,63.6,M,45.4,M,,0000*69
$GNGGA,101552.00,5051.87808,N,00005.24154,W,2,12,0.55,63.6,M,45.4,M,,0000*69
$GNGGA,101552.00,5051.87808,N,00005.24154,W,2,12,0.55,63.6,M,45.4,M,,0000*69
$GNGGA,101552.00,5051.87808,N,00005.24154,W,2,12,0.55,63.6,M,45.4,M,,0000*69
$GNGGA,101552.00,5051.87808,N,00005.24154,W,2,12,0.55,63.6,M,45.4,M,,0000*69
$GNGGA,101552.00,5051.87808,N,00005.24154,W,2,12,0.55,63.6,M,45.4,M,,0000*69
$GNGGA,101552.00,5051.87808,N,00005.24154,W,2,12,0.55,63.6,M,45.4,M,,0000*69
$GNGGA,101552.00,5051.87808,N,00005.24154,W,2,12,0.55,63.6,M,45.4,M,,0000*69
$GNGGA,101552.00,5051.87808,N,00005.24154,W,2,12,0.55,63.6,M,45.4,M,,0000*69
$GNGGA,101552.00,5051.87808,N,00005.24154,W,2,12,0.55,63.6,M,45.4,M,,0000*69
$GNGGA,101552.00,5051.87808,N,00005.24154,W,2,12,0.55,63.6,M,45.4,M,,0000*69
$GNGGA,101552.00,5051.87808,N,00005.24154,W,2,12,0.55,63.6,M,45.4,M,,0000*69
$GNGGA,101552.00,5051.87808,N,00005.24154,W,2,12,0.55,63.6,M,45.4,M,,0000*69
$GNGGA,101552.00,5051.87808,N,00005.24154,W,2,12,0.55,63.6,M,45.4,M,,0000*69
$GNGGA,101552.00,5051.87808,N,00005.24154,W,2,12,0.55,63.6,M,45.4,M,,0000*69
$GNGGA,101552.00,5051.87808,N,00005.24154,W,2,12,0.55,63.6,M,45.4,M,,0000*69
$GNGGA,101552.00,5051.87808,N,00005.24154,W,2,12,0.55,63.6,M,45.4,M,,0000*69
$GNGGA,101552.00,5051.87808,N,00005.24154,W,2,12,0.55,63.6,M,45.4,M,,0000*69
$GNGGA,101552.00,5051.87808,N,00005.24154,W,2,12,0.55,63.6,M,45.4,M,,0000*69
$GNGGA,101552.00,5051.87808,N,00005.24154,W,2,12,0.55,63.6,M,45.4,M,,0000*69
$GNGGA,101552.00,5051.87808,N,00005.24154,W,2,12,0.55,63.6,M,45.4,M,,0000*69
$GNGGA,101552.00,5051.87808,N,00005.24154,W,2,12,0.55,63.6,M,45.4,M,,0000*69
$GNGGA,101552.00,5051.87808,N,00005.24154,W,2,12,0.55,63.6,M,45.4,M,,0000*69
$GNGGA,101552.00,5051.87808,N,00005.24154,W,2,12,0.55,63.6,M,45.4,M,,0000*69
$GNGGA,101552.00,5051.87808,N,00005.24154,W,2,12,0.55,63.6,M,45.4,M,,0000*69
$GNGGA,101552.00,5051.87808,N,00005.24154,W,2,12,0.55,63.6,M,45.4,M,,0000*69
$GNGGA,101552.00,5051.87808,N,00005.24154,W,2,12,0.55,63.6,M,45.4,M,,0000*69
$GNGGA,101552.00,5051.87808,N,00005.24154,W,2,12,0.55,63.6,M,45.4,M,,0000*69
$GNGGA,101552.00,5051.87808,N,00005.24154,W,2,12,0.55,63.6,M,45.4,M,,0000*69
$GNGGA,101552.00,5051.87808,N,00005.24154,W,2,12,0.55,63.6,M,45.4,M,,0000*69
$GNGGA,101552.00,5051.87808,N,00005.24154,W,2,12,0.55,63.6,M,45.4,M,,0000*69
$GNGGA,101552.00,5051.87808,N,00005.24154,W,2,12,0.55,63.6,M,45.4,M,,0000*69
$GNGGA,101552.00,5051.87808,N,00005.24154,W,2,12,0.55,63.6,M,45.4,M,,0000*69
$GNGGA,101552.00,5051.87808,N,00005.24154,W,2,12,0.55,63.6,M,45.4,M,,0000*69
$GNGGA,101552.00,5051.87808,N,00005.24154,W,2,12,0.55,63.6,M,45.4,M,,0000*69
$GNGGA,101552.00,5051.87808,N,00005.24154,W,2,12,0.55,63.6,M,45.4,M,,0000*69
$GNGGA,101552.00,5051.87808,N,00005.24154,W,2,12,0.55,63.6,M,45.4,M,,0000*69
$GNGGA,101552.00,5051.87808,N,00005.24154,W,2,12,0.55,63.6,M,45.4,M,,0000*69
$GNGGA,101552.00,5051.87808,N,00005.24154,W,2,12,0.55,63.6,M,45.4,M,,0000*69
$GNGGA,101552.00,5051.87808,N,00005.24154,W,2,12,0.55,63.6,M,45.4,M,,0000*69
$GNGGA,101552.00,5051.87808,N,00005.24154,W,2,12,0.55,63.6,M,45.4,M,,0000*69
$GNGGA,101552.00,5051.87808,N,00005.24154,W,2,12,0.55,63.6,M,45.4,M,,0000*69
$GNGGA,101552.00,5051.87808,N,00005.24154,W,2,12,0.55,63.6,M,45.4,M,,0000*69
$GNGGA,101552.00,5051.87808,N,00005.24154,W,2,12,0.55,63.6,M,45.4,M,,0000*69
$GNGGA,101552.00,5051.87808,N,00005.24154,W,2,12,0.55,63.6,M,45.4,M,,0000*69
$GNGGA,101552.00,5051.87808,N,00005.24154,W,2,12,0.55,63.6,M,45.4,M,,0000*69
$GNGGA,101552.00,5051.87808,N,00005.24154,W,2,12,0.55,63.6,M,45.4,M,,0000*69
$GNGGA,101552.00,5051.87808,N,00005.24154,W,2,12,0.55,63.6,M,45.4,M,,0000*69
$GNGGA,101552.00,5051.87808,N,00005.24154,W,2,12,0.55,63.6,M,45.4,M,,0000*69
$GNGGA,101552.00,5051.87808,N,00005.24154,W,2,12,0.55,63.6,M,45.4,M,,0000*69
$GNGGA,101552.00,5051.87808,N,00005.24154,W,2,12,0.55,63.6,M,45.4,M,,0000*69
$GNGGA,101552.00,5051.87808,N,00005.24154,W,2,12,0.55,63.6,M,45.4,M,,0000*69
$GNGGA,101552.00,5051.87808,N,00005.24154,W,2,12,0.55,63.6,M,45.4,M,,0000*69
$GNGGA,101552.00,5051.87808,N,00005.24154,W,2,12,0.55,63.6,M,45.4,M,,0000*69
$GNGGA,101552.00,5051.87808,N,00005.24154,W,2,12,0.55,63.6,M,45.4,M,,0000*69
$GNGGA,101552.00,5051.87808,N,00005.24154,W,2,12,0.55,63.6,M,45.4,M,,0000*69
$GNGGA,101552.00,5051.87808,N,00005.24154,W,2,12,0.55,63.6,M,45.4,M,,0000*69
$GNGGA,101552.00,5051.87808,N,00005.24154,W,2,12,0.55,63.6,M,45.4,M,,0000*69
$GNGGA,101552.00,5051.87808,N,00005.24154,W,2,12,0.55,63.6,M,45.4,M,,0000*69
$GNGGA,101552.00,5051.87808,N,00005.24154,W,2,12,0.55,63.6,M,45.4,M,,0000*69
$GNGGA,101552.00,5051.87808,N,00005.24154,W,2,12,0.55,63.6,M,45.4,M,,0000*69
$GNGGA,101552.00,5051.87808,N,00005.24154,W,2,12,0.55,63.6,M,45.4,M,,0000*69
$GNGGA,101552.00,5051.87808,N,00005.24154,W,2,12,0.55,63.6,M,45.4,M,,0000*69
$GNGGA,101552.00,5051.87808,N,00005.24154,W,2,12,0.55,63.6,M,45.4,M,,0000*69
$GNGGA,101552.00,5051.87808,N,00005.24154,W,2,12,0.55,63.6,M,45.4,M,,0000*69
$GNGGA,101552.00,5051.87808,N,00005.24154,W,2,12,0.55,63.6,M,45.4,M,,0000*69
$GNGGA,101552.00,5051.87808,N,00005.24154,W,2,12,0.55,63.6,M,45.4,M,,0000*69
$GNGGA,101552.00,5051.87808,N,00005.24154,W,2,12,0.55,63.6,M,45.4,M,,0000*69
$GNGGA,101552.00,5051.87808,N,00005.24154,W,2,12,0.55,63.6,M,45.4,M,,0000*69
$GNGGA,101552.00,5051.87808,N,00005.24154,W,2,12,0.55,63.6,M,45.4,M,,0000*69
$GNGGA,101552.00,5051.87808,N,00005.24154,W,2,12,0.55,63.6,M,45.4,M,,0000*69
$GNGGA,101552.00,5051.87808,N,00005.24154,W,2,12,0.55,63.6,M,45.4,M,,0000*69
$GNGGA,101552.00,5051.87808,N,00005.24154,W,2,12,0.55,63.6,M,45.4,M,,0000*69
$GNGGA,101553.00,5051.87807,N,00005.24154,W,2,12,0.55,63.6,M,45.4,M,,0000*67
$GNGGA,101553.00,5051.87807,N,00005.24154,W,2,12,0.55,63.6,M,45.4,M,,0000*67
$GNGGA,101553.00,5051.87807,N,00005.24154,W,2,12,0.55,63.6,M,45.4,M,,0000*67
$GNGGA,101553.00,5051.87807,N,00005.24154,W,2,12,0.55,63.6,M,45.4,M,,0000*67
$GNGGA,101553.00,5051.87807,N,00005.24154,W,2,12,0.55,63.6,M,45.4,M,,0000*67
$GNGGA,101553.00,5051.87807,N,00005.24154,W,2,12,0.55,63.6,M,45.4,M,,0000*67
$GNGGA,101553.00,5051.87807,N,00005.24154,W,2,12,0.55,63.6,M,45.4,M,,0000*67
$GNGGA,101553.00,5051.87807,N,00005.24154,W,2,12,0.55,63.6,M,45.4,M,,0000*67
$GNGGA,101553.00,5051.87807,N,00005.24154,W,2,12,0.55,63.6,M,45.4,M,,0000*67
$GNGGA,101553.00,5051.87807,N,00005.24154,W,2,12,0.55,63.6,M,45.4,M,,0000*67
$GNGGA,101553.00,5051.87807,N,00005.24154,W,2,12,0.55,63.6,M,45.4,M,,0000*67
$GNGGA,101553.00,5051.87807,N,00005.24154,W,2,12,0.55,63.6,M,45.4,M,,0000*67
$GNGGA,101553.00,5051.87807,N,00005.24154,W,2,12,0.55,63.6,M,45.4,M,,0000*67
$GNGGA,101553.00,5051.87807,N,00005.24154,W,2,12,0.55,63.6,M,45.4,M,,0000*67
$GNGGA,101553.00,5051.87807,N,00005.24154,W,2,12,0.55,63.6,M,45.4,M,,0000*67
$GNGGA,101553.00,5051.87807,N,00005.24154,W,2,12,0.55,63.6,M,45.4,M,,0000*67
$GNGGA,101553.00,5051.87807,N,00005.24154,W,2,12,0.55,63.6,M,45.4,M,,0000*67
$GNGGA,101553.00,5051.87807,N,00005.24154,W,2,12,0.55,63.6,M,45.4,M,,0000*67
$GNGGA,101553.00,5051.87807,N,00005.24154,W,2,12,0.55,63.6,M,45.4,M,,0000*67
$GNGGA,101553.00,5051.87807,N,00005.24154,W,2,12,0.55,63.6,M,45.4,M,,0000*67
$GNGGA,101553.00,5051.87807,N,00005.24154,W,2,12,0.55,63.6,M,45.4,M,,0000*67
$GNGGA,101553.00,5051.87807,N,00005.24154,W,2,12,0.55,63.6,M,45.4,M,,0000*67
$GNGGA,101553.00,5051.87807,N,00005.24154,W,2,12,0.55,63.6,M,45.4,M,,0000*67
$GNGGA,101553.00,5051.87807,N,00005.24154,W,2,12,0.55,63.6,M,45.4,M,,0000*67
$GNGGA,101553.00,5051.87807,N,00005.24154,W,2,12,0.55,63.6,M,45.4,M,,0000*67
$GNGGA,101553.00,5051.87807,N,00005.24154,W,2,12,0.55,63.6,M,45.4,M,,0000*67
$GNGGA,101553.00,5051.87807,N,00005.24154,W,2,12,0.55,63.6,M,45.4,M,,0000*67
$GNGGA,101553.00,5051.87807,N,00005.24154,W,2,12,0.55,63.6,M,45.4,M,,0000*67
$GNGGA,101553.00,5051.87807,N,00005.24154,W,2,12,0.55,63.6,M,45.4,M,,0000*67
$GNGGA,101553.00,5051.87807,N,00005.24154,W,2,12,0.55,63.6,M,45.4,M,,0000*67
$GNGGA,101553.00,5051.87807,N,00005.24154,W,2,12,0.55,63.6,M,45.4,M,,0000*67
$GNGGA,101553.00,5051.87807,N,00005.24154,W,2,12,0.55,63.6,M,45.4,M,,0000*67
$GNGGA,101553.00,5051.87807,N,00005.24154,W,2,12,0.55,63.6,M,45.4,M,,0000*67
$GNGGA,101553.00,5051.87807,N,00005.24154,W,2,12,0.55,63.6,M,45.4,M,,0000*67
$GNGGA,101553.00,5051.87807,N,00005.24154,W,2,12,0.55,63.6,M,45.4,M,,0000*67
$GNGGA,101553.00,5051.87807,N,00005.24154,W,2,12,0.55,63.6,M,45.4,M,,0000*67
$GNGGA,101553.00,5051.87807,N,00005.24154,W,2,12,0.55,63.6,M,45.4,M,,0000*67
$GNGGA,101553.00,5051.87807,N,00005.24154,W,2,12,0.55,63.6,M,45.4,M,,0000*67
$GNGGA,101553.00,5051.87807,N,00005.24154,W,2,12,0.55,63.6,M,45.4,M,,0000*67
$GNGGA,101553.00,5051.87807,N,00005.24154,W,2,12,0.55,63.6,M,45.4,M,,0000*67
$GNGGA,101553.00,5051.87807,N,00005.24154,W,2,12,0.55,63.6,M,45.4,M,,0000*67
$GNGGA,101553.00,5051.87807,N,00005.24154,W,2,12,0.55,63.6,M,45.4,M,,0000*67
$GNGGA,101553.00,5051.87807,N,00005.24154,W,2,12,0.55,63.6,M,45.4,M,,0000*67
$GNGGA,101553.00,5051.87807,N,00005.24154,W,2,12,0.55,63.6,M,45.4,M,,0000*67
$GNGGA,101553.00,5051.87807,N,00005.24154,W,2,12,0.55,63.6,M,45.4,M,,0000*67
$GNGGA,101553.00,5051.87807,N,00005.24154,W,2,12,0.55,63.6,M,45.4,M,,0000*67
$GNGGA,101553.00,5051.87807,N,00005.24154,W,2,12,0.55,63.6,M,45.4,M,,0000*67
$GNGGA,101553.00,5051.87807,N,00005.24154,W,2,12,0.55,63.6,M,45.4,M,,0000*67
$GNGGA,101553.00,5051.87807,N,00005.24154,W,2,12,0.55,63.6,M,45.4,M,,0000*67
$GNGGA,101553.00,5051.87807,N,00005.24154,W,2,12,0.55,63.6,M,45.4,M,,0000*67
$GNGGA,101553.00,5051.87807,N,00005.24154,W,2,12,0.55,63.6,M,45.4,M,,0000*67
$GNGGA,101553.00,5051.87807,N,00005.24154,W,2,12,0.55,63.6,M,45.4,M,,0000*67
$GNGGA,101553.00,5051.87807,N,00005.24154,W,2,12,0.55,63.6,M,45.4,M,,0000*67
$GNGGA,101553.00,5051.87807,N,00005.24154,W,2,12,0.55,63.6,M,45.4,M,,0000*67
$GNGGA,101553.00,5051.87807,N,00005.24154,W,2,12,0.55,63.6,M,45.4,M,,0000*67
$GNGGA,101553.00,5051.87807,N,00005.24154,W,2,12,0.55,63.6,M,45.4,M,,0000*67
$GNGGA,101553.00,5051.87807,N,00005.24154,W,2,12,0.55,63.6,M,45.4,M,,0000*67
$GNGGA,101553.00,5051.87807,N,00005.24154,W,2,12,0.55,63.6,M,45.4,M,,0000*67
$GNGGA,101553.00,5051.87807,N,00005.24154,W,2,12,0.55,63.6,M,45.4,M,,0000*67
$GNGGA,101553.00,5051.87807,N,00005.24154,W,2,12,0.55,63.6,M,45.4,M,,0000*67
$GNGGA,101553.00,5051.87807,N,00005.24154,W,2,12,0.55,63.6,M,45.4,M,,0000*67
$GNGGA,101553.00,5051.87807,N,00005.24154,W,2,12,0.55,63.6,M,45.4,M,,0000*67
$GNGGA,101553.00,5051.87807,N,00005.24154,W,2,12,0.55,63.6,M,45.4,M,,0000*67
$GNGGA,101553.00,5051.87807,N,00005.24154,W,2,12,0.55,63.6,M,45.4,M,,0000*67
$GNGGA,101553.00,5051.87807,N,00005.24154,W,2,12,0.55,63.6,M,45.4,M,,0000*67
$GNGGA,101553.00,5051.87807,N,00005.24154,W,2,12,0.55,63.6,M,45.4,M,,0000*67
$GNGGA,101553.00,5051.87807,N,00005.24154,W,2,12,0.55,63.6,M,45.4,M,,0000*67
$GNGGA,101553.00,5051.87807,N,00005.24154,W,2,12,0.55,63.6,M,45.4,M,,0000*67
$GNGGA,101553.00,5051.87807,N,00005.24154,W,2,12,0.55,63.6,M,45.4,M,,0000*67
$GNGGA,101553.00,5051.87807,N,00005.24154,W,2,12,0.55,63.6,M,45.4,M,,0000*67
$GNGGA,101553.00,5051.87807,N,00005.24154,W,2,12,0.55,63.6,M,45.4,M,,0000*67
$GNGGA,101553.00,5051.87807,N,00005.24154,W,2,12,0.55,63.6,M,45.4,M,,0000*67
$GNGGA,101553.00,5051.87807,N,00005.24154,W,2,12,0.55,63.6,M,45.4,M,,0000*67
$GNGGA,101553.00,5051.87807,N,00005.24154,W,2,12,0.55,63.6,M,45.4,M,,0000*67
$GNGGA,101553.00,5051.87807,N,00005.24154,W,2,12,0.55,63.6,M,45.4,M,,0000*67
$GNGGA,101553.00,5051.87807,N,00005.24154,W,2,12,0.55,63.6,M,45.4,M,,0000*67
$GNGGA,101554.00,5051.87807,N,00005.24155,W,2,12,0.56,63.6,M,45.4,M,,0000*62
$GNGGA,101554.00,5051.87807,N,00005.24155,W,2,12,0.56,63.6,M,45.4,M,,0000*62
$GNGGA,101554.00,5051.87807,N,00005.24155,W,2,12,0.56,63.6,M,45.4,M,,0000*62
$GNGGA,101554.00,5051.87807,N,00005.24155,W,2,12,0.56,63.6,M,45.4,M,,0000*62
$GNGGA,101554.00,5051.87807,N,00005.24155,W,2,12,0.56,63.6,M,45.4,M,,0000*62
$GNGGA,101554.00,5051.87807,N,00005.24155,W,2,12,0.56,63.6,M,45.4,M,,0000*62
$GNGGA,101554.00,5051.87807,N,00005.24155,W,2,12,0.56,63.6,M,45.4,M,,0000*62
$GNGGA,101554.00,5051.87807,N,00005.24155,W,2,12,0.56,63.6,M,45.4,M,,0000*62
$GNGGA,101554.00,5051.87807,N,00005.24155,W,2,12,0.56,63.6,M,45.4,M,,0000*62
$GNGGA,101554.00,5051.87807,N,00005.24155,W,2,12,0.56,63.6,M,45.4,M,,0000*62
$GNGGA,101554.00,5051.87807,N,00005.24155,W,2,12,0.56,63.6,M,45.4,M,,0000*62
$GNGGA,101554.00,5051.87807,N,00005.24155,W,2,12,0.56,63.6,M,45.4,M,,0000*62
$GNGGA,101554.00,5051.87807,N,00005.24155,W,2,12,0.56,63.6,M,45.4,M,,0000*62
$GNGGA,101554.00,5051.87807,N,00005.24155,W,2,12,0.56,63.6,M,45.4,M,,0000*62
$GNGGA,101554.00,5051.87807,N,00005.24155,W,2,12,0.56,63.6,M,45.4,M,,0000*62
$GNGGA,101554.00,5051.87807,N,00005.24155,W,2,12,0.56,63.6,M,45.4,M,,0000*62
$GNGGA,101554.00,5051.87807,N,00005.24155,W,2,12,0.56,63.6,M,45.4,M,,0000*62
$GNGGA,101554.00,5051.87807,N,00005.24155,W,2,12,0.56,63.6,M,45.4,M,,0000*62
$GNGGA,101554.00,5051.87807,N,00005.24155,W,2,12,0.56,63.6,M,45.4,M,,0000*62
$GNGGA,101554.00,5051.87807,N,00005.24155,W,2,12,0.56,63.6,M,45.4,M,,0000*62
$GNGGA,101554.00,5051.87807,N,00005.24155,W,2,12,0.56,63.6,M,45.4,M,,0000*62
$GNGGA,101554.00,5051.87807,N,00005.24155,W,2,12,0.56,63.6,M,45.4,M,,0000*62
$GNGGA,101554.00,5051.87807,N,00005.24155,W,2,12,0.56,63.6,M,45.4,M,,0000*62
$GNGGA,101554.00,5051.87807,N,00005.24155,W,2,12,0.56,63.6,M,45.4,M,,0000*62
$GNGGA,101554.00,5051.87807,N,00005.24155,W,2,12,0.56,63.6,M,45.4,M,,0000*62
$GNGGA,101554.00,5051.87807,N,00005.24155,W,2,12,0.56,63.6,M,45.4,M,,0000*62
$GNGGA,101554.00,5051.87807,N,00005.24155,W,2,12,0.56,63.6,M,45.4,M,,0000*62
$GNGGA,101554.00,5051.87807,N,00005.24155,W,2,12,0.56,63.6,M,45.4,M,,0000*62
$GNGGA,101554.00,5051.87807,N,00005.24155,W,2,12,0.56,63.6,M,45.4,M,,0000*62
$GNGGA,101554.00,5051.87807,N,00005.24155,W,2,12,0.56,63.6,M,45.4,M,,0000*62
$GNGGA,101554.00,5051.87807,N,00005.24155,W,2,12,0.56,63.6,M,45.4,M,,0000*62
$GNGGA,101554.00,5051.87807,N,00005.24155,W,2,12,0.56,63.6,M,45.4,M,,0000*62
$GNGGA,101554.00,5051.87807,N,00005.24155,W,2,12,0.56,63.6,M,45.4,M,,0000*62
$GNGGA,101554.00,5051.87807,N,00005.24155,W,2,12,0.56,63.6,M,45.4,M,,0000*62
$GNGGA,101554.00,5051.87807,N,00005.24155,W,2,12,0.56,63.6,M,45.4,M,,0000*62
$GNGGA,101554.00,5051.87807,N,00005.24155,W,2,12,0.56,63.6,M,45.4,M,,0000*62
$GNGGA,101554.00,5051.87807,N,00005.24155,W,2,12,0.56,63.6,M,45.4,M,,0000*62
$GNGGA,101554.00,5051.87807,N,00005.24155,W,2,12,0.56,63.6,M,45.4,M,,0000*62
$GNGGA,101554.00,5051.87807,N,00005.24155,W,2,12,0.56,63.6,M,45.4,M,,0000*62
$GNGGA,101554.00,5051.87807,N,00005.24155,W,2,12,0.56,63.6,M,45.4,M,,0000*62
$GNGGA,101554.00,5051.87807,N,00005.24155,W,2,12,0.56,63.6,M,45.4,M,,0000*62
$GNGGA,101554.00,5051.87807,N,00005.24155,W,2,12,0.56,63.6,M,45.4,M,,0000*62
$GNGGA,101554.00,5051.87807,N,00005.24155,W,2,12,0.56,63.6,M,45.4,M,,0000*62
$GNGGA,101554.00,5051.87807,N,00005.24155,W,2,12,0.56,63.6,M,45.4,M,,0000*62
$GNGGA,101554.00,5051.87807,N,00005.24155,W,2,12,0.56,63.6,M,45.4,M,,0000*62
$GNGGA,101554.00,5051.87807,N,00005.24155,W,2,12,0.56,63.6,M,45.4,M,,0000*62
$GNGGA,101554.00,5051.87807,N,00005.24155,W,2,12,0.56,63.6,M,45.4,M,,0000*62
$GNGGA,101554.00,5051.87807,N,00005.24155,W,2,12,0.56,63.6,M,45.4,M,,0000*62
$GNGGA,101554.00,5051.87807,N,00005.24155,W,2,12,0.56,63.6,M,45.4,M,,0000*62
$GNGGA,101554.00,5051.87807,N,00005.24155,W,2,12,0.56,63.6,M,45.4,M,,0000*62
$GNGGA,101554.00,5051.87807,N,00005.24155,W,2,12,0.56,63.6,M,45.4,M,,0000*62
$GNGGA,101554.00,5051.87807,N,00005.24155,W,2,12,0.56,63.6,M,45.4,M,,0000*62
$GNGGA,101554.00,5051.87807,N,00005.24155,W,2,12,0.56,63.6,M,45.4,M,,0000*62
$GNGGA,101554.00,5051.87807,N,00005.24155,W,2,12,0.56,63.6,M,45.4,M,,0000*62
$GNGGA,101554.00,5051.87807,N,00005.24155,W,2,12,0.56,63.6,M,45.4,M,,0000*62
$GNGGA,101554.00,5051.87807,N,00005.24155,W,2,12,0.56,63.6,M,45.4,M,,0000*62
$GNGGA,101554.00,5051.87807,N,00005.24155,W,2,12,0.56,63.6,M,45.4,M,,0000*62
$GNGGA,101554.00,5051.87807,N,00005.24155,W,2,12,0.56,63.6,M,45.4,M,,0000*62
$GNGGA,101554.00,5051.87807,N,00005.24155,W,2,12,0.56,63.6,M,45.4,M,,0000*62
$GNGGA,101554.00,5051.87807,N,00005.24155,W,2,12,0.56,63.6,M,45.4,M,,0000*62
$GNGGA,101554.00,5051.87807,N,00005.24155,W,2,12,0.56,63.6,M,45.4,M,,0000*62
$GNGGA,101554.00,5051.87807,N,00005.24155,W,2,12,0.56,63.6,M,45.4,M,,0000*62
$GNGGA,101554.00,5051.87807,N,00005.24155,W,2,12,0.56,63.6,M,45.4,M,,0000*62
$GNGGA,101554.00,5051.87807,N,00005.24155,W,2,12,0.56,63.6,M,45.4,M,,0000*62
$GNGGA,101554.00,5051.87807,N,00005.24155,W,2,12,0.56,63.6,M,45.4,M,,0000*62
$GNGGA,101554.00,5051.87807,N,00005.24155,W,2,12,0.56,63.6,M,45.4,M,,0000*62
$GNGGA,101554.00,5051.87807,N,00005.24155,W,2,12,0.56,63.6,M,45.4,M,,0000*62
$GNGGA,101554.00,5051.87807,N,00005.24155,W,2,12,0.56,63.6,M,45.4,M,,0000*62
$GNGGA,101554.00,5051.87807,N,00005.24155,W,2,12,0.56,63.6,M,45.4,M,,0000*62
$GNGGA,101554.00,5051.87807,N,00005.24155,W,2,12,0.56,63.6,M,45.4,M,,0000*62
$GNGGA,101554.00,5051.87807,N,00005.24155,W,2,12,0.56,63.6,M,45.4,M,,0000*62
$GNGGA,101554.00,5051.87807,N,00005.24155,W,2,12,0.56,63.6,M,45.4,M,,0000*62
$GNGGA,101554.00,5051.87807,N,00005.24155,W,2,12,0.56,63.6,M,45.4,M,,0000*62
$GNGGA,101554.00,5051.87807,N,00005.24155,W,2,12,0.56,63.6,M,45.4,M,,0000*62
$GNGGA,101554.00,5051.87807,N,00005.24155,W,2,12,0.56,63.6,M,45.4,M,,0000*62
$GNGGA,101554.00,5051.87807,N,00005.24155,W,2,12,0.56,63.6,M,45.4,M,,0000*62
$GNGGA,101555.00,5051.87807,N,00005.24156,W,2,12,0.58,63.6,M,45.4,M,,0000*6E
$GNGGA,101555.00,5051.87807,N,00005.24156,W,2,12,0.58,63.6,M,45.4,M,,0000*6E
$GNGGA,101555.00,5051.87807,N,00005.24156,W,2,12,0.58,63.6,M,45.4,M,,0000*6E
$GNGGA,101555.00,5051.87807,N,00005.24156,W,2,12,0.58,63.6,M,45.4,M,,0000*6E
$GNGGA,101555.00,5051.87807,N,00005.24156,W,2,12,0.58,63.6,M,45.4,M,,0000*6E
$GNGGA,101555.00,5051.87807,N,00005.24156,W,2,12,0.58,63.6,M,45.4,M,,0000*6E
$GNGGA,101555.00,5051.87807,N,00005.24156,W,2,12,0.58,63.6,M,45.4,M,,0000*6E
$GNGGA,101555.00,5051.87807,N,00005.24156,W,2,12,0.58,63.6,M,45.4,M,,0000*6E
$GNGGA,101555.00,5051.87807,N,00005.24156,W,2,12,0.58,63.6,M,45.4,M,,0000*6E
$GNGGA,101555.00,5051.87807,N,00005.24156,W,2,12,0.58,63.6,M,45.4,M,,0000*6E
$GNGGA,101555.00,5051.87807,N,00005.24156,W,2,12,0.58,63.6,M,45.4,M,,0000*6E
$GNGGA,101555.00,5051.87807,N,00005.24156,W,2,12,0.58,63.6,M,45.4,M,,0000*6E
$GNGGA,101555.00,5051.87807,N,00005.24156,W,2,12,0.58,63.6,M,45.4,M,,0000*6E
$GNGGA,101555.00,5051.87807,N,00005.24156,W,2,12,0.58,63.6,M,45.4,M,,0000*6E
$GNGGA,101555.00,5051.87807,N,00005.24156,W,2,12,0.58,63.6,M,45.4,M,,0000*6E
$GNGGA,101555.00,5051.87807,N,00005.24156,W,2,12,0.58,63.6,M,45.4,M,,0000*6E
$GNGGA,101555.00,5051.87807,N,00005.24156,W,2,12,0.58,63.6,M,45.4,M,,0000*6E
$GNGGA,101555.00,5051.87807,N,00005.24156,W,2,12,0.58,63.6,M,45.4,M,,0000*6E
$GNGGA,101555.00,5051.87807,N,00005.24156,W,2,12,0.58,63.6,M,45.4,M,,0000*6E
$GNGGA,101555.00,5051.87807,N,00005.24156,W,2,12,0.58,63.6,M,45.4,M,,0000*6E
$GNGGA,101555.00,5051.87807,N,00005.24156,W,2,12,0.58,63.6,M,45.4,M,,0000*6E
$GNGGA,101555.00,5051.87807,N,00005.24156,W,2,12,0.58,63.6,M,45.4,M,,0000*6E
$GNGGA,101555.00,5051.87807,N,00005.24156,W,2,12,0.58,63.6,M,45.4,M,,0000*6E
$GNGGA,101555.00,5051.87807,N,00005.24156,W,2,12,0.58,63.6,M,45.4,M,,0000*6E
$GNGGA,101555.00,5051.87807,N,00005.24156,W,2,12,0.58,63.6,M,45.4,M,,0000*6E
$GNGGA,101555.00,5051.87807,N,00005.24156,W,2,12,0.58,63.6,M,45.4,M,,0000*6E
$GNGGA,101555.00,5051.87807,N,00005.24156,W,2,12,0.58,63.6,M,45.4,M,,0000*6E
$GNGGA,101555.00,5051.87807,N,00005.24156,W,2,12,0.58,63.6,M,45.4,M,,0000*6E
$GNGGA,101555.00,5051.87807,N,00005.24156,W,2,12,0.58,63.6,M,45.4,M,,0000*6E
$GNGGA,101555.00,5051.87807,N,00005.24156,W,2,12,0.58,63.6,M,45.4,M,,0000*6E
$GNGGA,101555.00,5051.87807,N,00005.24156,W,2,12,0.58,63.6,M,45.4,M,,0000*6E
$GNGGA,101555.00,5051.87807,N,00005.24156,W,2,12,0.58,63.6,M,45.4,M,,0000*6E
$GNGGA,101555.00,5051.87807,N,00005.24156,W,2,12,0.58,63.6,M,45.4,M,,0000*6E
$GNGGA,101555.00,5051.87807,N,00005.24156,W,2,12,0.58,63.6,M,45.4,M,,0000*6E
$GNGGA,101555.00,5051.87807,N,00005.24156,W,2,12,0.58,63.6,M,45.4,M,,0000*6E
$GNGGA,101555.00,5051.87807,N,00005.24156,W,2,12,0.58,63.6,M,45.4,M,,0000*6E
$GNGGA,101555.00,5051.87807,N,00005.24156,W,2,12,0.58,63.6,M,45.4,M,,0000*6E
$GNGGA,101555.00,5051.87807,N,00005.24156,W,2,12,0.58,63.6,M,45.4,M,,0000*6E
$GNGGA,101555.00,5051.87807,N,00005.24156,W,2,12,0.58,63.6,M,45.4,M,,0000*6E
$GNGGA,101555.00,5051.87807,N,00005.24156,W,2,12,0.58,63.6,M,45.4,M,,0000*6E
$GNGGA,101555.00,5051.87807,N,00005.24156,W,2,12,0.58,63.6,M,45.4,M,,0000*6E
$GNGGA,101555.00,5051.87807,N,00005.24156,W,2,12,0.58,63.6,M,45.4,M,,0000*6E
$GNGGA,101555.00,5051.87807,N,00005.24156,W,2,12,0.58,63.6,M,45.4,M,,0000*6E
$GNGGA,101555.00,5051.87807,N,00005.24156,W,2,12,0.58,63.6,M,45.4,M,,0000*6E
$GNGGA,101555.00,5051.87807,N,00005.24156,W,2,12,0.58,63.6,M,45.4,M,,0000*6E
$GNGGA,101555.00,5051.87807,N,00005.24156,W,2,12,0.58,63.6,M,45.4,M,,0000*6E
$GNGGA,101555.00,5051.87807,N,00005.24156,W,2,12,0.58,63.6,M,45.4,M,,0000*6E
$GNGGA,101555.00,5051.87807,N,00005.24156,W,2,12,0.58,63.6,M,45.4,M,,0000*6E
$GNGGA,101555.00,5051.87807,N,00005.24156,W,2,12,0.58,63.6,M,45.4,M,,0000*6E
$GNGGA,101555.00,5051.87807,N,00005.24156,W,2,12,0.58,63.6,M,45.4,M,,0000*6E
$GNGGA,101555.00,5051.87807,N,00005.24156,W,2,12,0.58,63.6,M,45.4,M,,0000*6E
$GNGGA,101555.00,5051.87807,N,00005.24156,W,2,12,0.58,63.6,M,45.4,M,,0000*6E
$GNGGA,101555.00,5051.87807,N,00005.24156,W,2,12,0.58,63.6,M,45.4,M,,0000*6E
$GNGGA,101555.00,5051.87807,N,00005.24156,W,2,12,0.58,63.6,M,45.4,M,,0000*6E
$GNGGA,101555.00,5051.87807,N,00005.24156,W,2,12,0.58,63.6,M,45.4,M,,0000*6E
$GNGGA,101555.00,5051.87807,N,00005.24156,W,2,12,0.58,63.6,M,45.4,M,,0000*6E
$GNGGA,101555.00,5051.87807,N,00005.24156,W,2,12,0.58,63.6,M,45.4,M,,0000*6E
$GNGGA,101555.00,5051.87807,N,00005.24156,W,2,12,0.58,63.6,M,45.4,M,,0000*6E
$GNGGA,101555.00,5051.87807,N,00005.24156,W,2,12,0.58,63.6,M,45.4,M,,0000*6E
$GNGGA,101555.00,5051.87807,N,00005.24156,W,2,12,0.58,63.6,M,45.4,M,,0000*6E
$GNGGA,101555.00,5051.87807,N,00005.24156,W,2,12,0.58,63.6,M,45.4,M,,0000*6E
$GNGGA,101555.00,5051.87807,N,00005.24156,W,2,12,0.58,63.6,M,45.4,M,,0000*6E
$GNGGA,101555.00,5051.87807,N,00005.24156,W,2,12,0.58,63.6,M,45.4,M,,0000*6E
$GNGGA,101555.00,5051.87807,N,00005.24156,W,2,12,0.58,63.6,M,45.4,M,,0000*6E
$GNGGA,101555.00,5051.87807,N,00005.24156,W,2,12,0.58,63.6,M,45.4,M,,0000*6E
$GNGGA,101555.00,5051.87807,N,00005.24156,W,2,12,0.58,63.6,M,45.4,M,,0000*6E
$GNGGA,101555.00,5051.87807,N,00005.24156,W,2,12,0.58,63.6,M,45.4,M,,0000*6E
$GNGGA,101555.00,5051.87807,N,00005.24156,W,2,12,0.58,63.6,M,45.4,M,,0000*6E
$GNGGA,101555.00,5051.87807,N,00005.24156,W,2,12,0.58,63.6,M,45.4,M,,0000*6E
$GNGGA,101555.00,5051.87807,N,00005.24156,W,2,12,0.58,63.6,M,45.4,M,,0000*6E
$GNGGA,101555.00,5051.87807,N,00005.24156,W,2,12,0.58,63.6,M,45.4,M,,0000*6E
$GNGGA,101555.00,5051.87807,N,00005.24156,W,2,12,0.58,63.6,M,45.4,M,,0000*6E
$GNGGA,101555.00,5051.87807,N,00005.24156,W,2,12,0.58,63.6,M,45.4,M,,0000*6E
$GNGGA,101555.00,5051.87807,N,00005.24156,W,2,12,0.58,63.6,M,45.4,M,,0000*6E
$GNGGA,101555.00,5051.87807,N,00005.24156,W,2,12,0.58,63.6,M,45.4,M,,0000*6E
$GNGGA,101555.00,5051.87807,N,00005.24156,W,2,12,0.58,63.6,M,45.4,M,,0000*6E
$GNGGA,101556.00,5051.87807,N,00005.24157,W,2,12,0.58,63.6,M,45.4,M,,0000*6C
$GNGGA,101556.00,5051.87807,N,00005.24157,W,2,12,0.58,63.6,M,45.4,M,,0000*6C
$GNGGA,101556.00,5051.87807,N,00005.24157,W,2,12,0.58,63.6,M,45.4,M,,0000*6C
$GNGGA,101556.00,5051.87807,N,00005.24157,W,2,12,0.58,63.6,M,45.4,M,,0000*6C
$GNGGA,101556.00,5051.87807,N,00005.24157,W,2,12,0.58,63.6,M,45.4,M,,0000*6C
$GNGGA,101556.00,5051.87807,N,00005.24157,W,2,12,0.58,63.6,M,45.4,M,,0000*6C
$GNGGA,101556.00,5051.87807,N,00005.24157,W,2,12,0.58,63.6,M,45.4,M,,0000*6C
$GNGGA,101556.00,5051.87807,N,00005.24157,W,2,12,0.58,63.6,M,45.4,M,,0000*6C
$GNGGA,101556.00,5051.87807,N,00005.24157,W,2,12,0.58,63.6,M,45.4,M,,0000*6C
$GNGGA,101556.00,5051.87807,N,00005.24157,W,2,12,0.58,63.6,M,45.4,M,,0000*6C
$GNGGA,101556.00,5051.87807,N,00005.24157,W,2,12,0.58,63.6,M,45.4,M,,0000*6C
$GNGGA,101556.00,5051.87807,N,00005.24157,W,2,12,0.58,63.6,M,45.4,M,,0000*6C
$GNGGA,101556.00,5051.87807,N,00005.24157,W,2,12,0.58,63.6,M,45.4,M,,0000*6C
$GNGGA,101556.00,5051.87807,N,00005.24157,W,2,12,0.58,63.6,M,45.4,M,,0000*6C
$GNGGA,101556.00,5051.87807,N,00005.24157,W,2,12,0.58,63.6,M,45.4,M,,0000*6C
$GNGGA,101556.00,5051.87807,N,00005.24157,W,2,12,0.58,63.6,M,45.4,M,,0000*6C
$GNGGA,101556.00,5051.87807,N,00005.24157,W,2,12,0.58,63.6,M,45.4,M,,0000*6C
$GNGGA,101556.00,5051.87807,N,00005.24157,W,2,12,0.58,63.6,M,45.4,M,,0000*6C
$GNGGA,101556.00,5051.87807,N,00005.24157,W,2,12,0.58,63.6,M,45.4,M,,0000*6C
$GNGGA,101556.00,5051.87807,N,00005.24157,W,2,12,0.58,63.6,M,45.4,M,,0000*6C
$GNGGA,101556.00,5051.87807,N,00005.24157,W,2,12,0.58,63.6,M,45.4,M,,0000*6C
$GNGGA,101556.00,5051.87807,N,00005.24157,W,2,12,0.58,63.6,M,45.4,M,,0000*6C
$GNGGA,101556.00,5051.87807,N,00005.24157,W,2,12,0.58,63.6,M,45.4,M,,0000*6C
$GNGGA,101556.00,5051.87807,N,00005.24157,W,2,12,0.58,63.6,M,45.4,M,,0000*6C
$GNGGA,101556.00,5051.87807,N,00005.24157,W,2,12,0.58,63.6,M,45.4,M,,0000*6C
$GNGGA,101556.00,5051.87807,N,00005.24157,W,2,12,0.58,63.6,M,45.4,M,,0000*6C
$GNGGA,101556.00,5051.87807,N,00005.24157,W,2,12,0.58,63.6,M,45.4,M,,0000*6C
$GNGGA,101556.00,5051.87807,N,00005.24157,W,2,12,0.58,63.6,M,45.4,M,,0000*6C
$GNGGA,101556.00,5051.87807,N,00005.24157,W,2,12,0.58,63.6,M,45.4,M,,0000*6C
$GNGGA,101556.00,5051.87807,N,00005.24157,W,2,12,0.58,63.6,M,45.4,M,,0000*6C
$GNGGA,101556.00,5051.87807,N,00005.24157,W,2,12,0.58,63.6,M,45.4,M,,0000*6C
$GNGGA,101556.00,5051.87807,N,00005.24157,W,2,12,0.58,63.6,M,45.4,M,,0000*6C
$GNGGA,101556.00,5051.87807,N,00005.24157,W,2,12,0.58,63.6,M,45.4,M,,0000*6C
$GNGGA,101556.00,5051.87807,N,00005.24157,W,2,12,0.58,63.6,M,45.4,M,,0000*6C
$GNGGA,101556.00,5051.87807,N,00005.24157,W,2,12,0.58,63.6,M,45.4,M,,0000*6C
$GNGGA,101556.00,5051.87807,N,00005.24157,W,2,12,0.58,63.6,M,45.4,M,,0000*6C
$GNGGA,101556.00,5051.87807,N,00005.24157,W,2,12,0.58,63.6,M,45.4,M,,0000*6C
$GNGGA,101556.00,5051.87807,N,00005.24157,W,2,12,0.58,63.6,M,45.4,M,,0000*6C
$GNGGA,101556.00,5051.87807,N,00005.24157,W,2,12,0.58,63.6,M,45.4,M,,0000*6C
$GNGGA,101556.00,5051.87807,N,00005.24157,W,2,12,0.58,63.6,M,45.4,M,,0000*6C
$GNGGA,101556.00,5051.87807,N,00005.24157,W,2,12,0.58,63.6,M,45.4,M,,0000*6C
$GNGGA,101556.00,5051.87807,N,00005.24157,W,2,12,0.58,63.6,M,45.4,M,,0000*6C
$GNGGA,101556.00,5051.87807,N,00005.24157,W,2,12,0.58,63.6,M,45.4,M,,0000*6C
$GNGGA,101556.00,5051.87807,N,00005.24157,W,2,12,0.58,63.6,M,45.4,M,,0000*6C
$GNGGA,101556.00,5051.87807,N,00005.24157,W,2,12,0.58,63.6,M,45.4,M,,0000*6C
$GNGGA,101556.00,5051.87807,N,00005.24157,W,2,12,0.58,63.6,M,45.4,M,,0000*6C
$GNGGA,101556.00,5051.87807,N,00005.24157,W,2,12,0.58,63.6,M,45.4,M,,0000*6C
$GNGGA,101556.00,5051.87807,N,00005.24157,W,2,12,0.58,63.6,M,45.4,M,,0000*6C
$GNGGA,101556.00,5051.87807,N,00005.24157,W,2,12,0.58,63.6,M,45.4,M,,0000*6C
$GNGGA,101556.00,5051.87807,N,00005.24157,W,2,12,0.58,63.6,M,45.4,M,,0000*6C
$GNGGA,101556.00,5051.87807,N,00005.24157,W,2,12,0.58,63.6,M,45.4,M,,0000*6C
$GNGGA,101556.00,5051.87807,N,00005.24157,W,2,12,0.58,63.6,M,45.4,M,,0000*6C
$GNGGA,101556.00,5051.87807,N,00005.24157,W,2,12,0.58,63.6,M,45.4,M,,0000*6C
$GNGGA,101556.00,5051.87807,N,00005.24157,W,2,12,0.58,63.6,M,45.4,M,,0000*6C
$GNGGA,101556.00,5051.87807,N,00005.24157,W,2,12,0.58,63.6,M,45.4,M,,0000*6C
$GNGGA,101556.00,5051.87807,N,00005.24157,W,2,12,0.58,63.6,M,45.4,M,,0000*6C
$GNGGA,101556.00,5051.87807,N,00005.24157,W,2,12,0.58,63.6,M,45.4,M,,0000*6C
$GNGGA,101556.00,5051.87807,N,00005.24157,W,2,12,0.58,63.6,M,45.4,M,,0000*6C
$GNGGA,101556.00,5051.87807,N,00005.24157,W,2,12,0.58,63.6,M,45.4,M,,0000*6C
$GNGGA,101556.00,5051.87807,N,00005.24157,W,2,12,0.58,63.6,M,45.4,M,,0000*6C
$GNGGA,101556.00,5051.87807,N,00005.24157,W,2,12,0.58,63.6,M,45.4,M,,0000*6C
$GNGGA,101556.00,5051.87807,N,00005.24157,W,2,12,0.58,63.6,M,45.4,M,,0000*6C
$GNGGA,101556.00,5051.87807,N,00005.24157,W,2,12,0.58,63.6,M,45.4,M,,0000*6C
$GNGGA,101556.00,5051.87807,N,00005.24157,W,2,12,0.58,63.6,M,45.4,M,,0000*6C
$GNGGA,101556.00,5051.87807,N,00005.24157,W,2,12,0.58,63.6,M,45.4,M,,0000*6C
$GNGGA,101556.00,5051.87807,N,00005.24157,W,2,12,0.58,63.6,M,45.4,M,,0000*6C
$GNGGA,101556.00,5051.87807,N,00005.24157,W,2,12,0.58,63.6,M,45.4,M,,0000*6C
$GNGGA,101556.00,5051.87807,N,00005.24157,W,2,12,0.58,63.6,M,45.4,M,,0000*6C
$GNGGA,101556.00,5051.87807,N,00005.24157,W,2,12,0.58,63.6,M,45.4,M,,0000*6C
$GNGGA,101556.00,5051.87807,N,00005.24157,W,2,12,0.58,63.6,M,45.4,M,,0000*6C
$GNGGA,101556.00,5051.87807,N,00005.24157,W,2,12,0.58,63.6,M,45.4,M,,0000*6C
$GNGGA,101556.00,5051.87807,N,00005.24157,W,2,12,0.58,63.6,M,45.4,M,,0000*6C
$GNGGA,101556.00,5051.87807,N,00005.24157,W,2,12,0.58,63.6,M,45.4,M,,0000*6C
$GNGGA,101556.00,5051.87807,N,00005.24157,W,2,12,0.58,63.6,M,45.4,M,,0000*6C
$GNGGA,101556.00,5051.87807,N,00005.24157,W,2,12,0.58,63.6,M,45.4,M,,0000*6C
$GNGGA,101556.00,5051.87807,N,00005.24157,W,2,12,0.58,63.6,M,45.4,M,,0000*6C
$GNGGA,101557.00,5051.87791,N,00005.24158,W,2,12,0.59,63.3,M,45.4,M,,0000*66
$GNGGA,101557.00,5051.87791,N,00005.24158,W,2,12,0.59,63.3,M,45.4,M,,0000*66
$GNGGA,101557.00,5051.87791,N,00005.24158,W,2,12,0.59,63.3,M,45.4,M,,0000*66
$GNGGA,101557.00,5051.87791,N,00005.24158,W,2,12,0.59,63.3,M,45.4,M,,0000*66
$GNGGA,101557.00,5051.87791,N,00005.24158,W,2,12,0.59,63.3,M,45.4,M,,0000*66
$GNGGA,101557.00,5051.87791,N,00005.24158,W,2,12,0.59,63.3,M,45.4,M,,0000*66
$GNGGA,101557.00,5051.87791,N,00005.24158,W,2,12,0.59,63.3,M,45.4,M,,0000*66
$GNGGA,101557.00,5051.87791,N,00005.24158,W,2,12,0.59,63.3,M,45.4,M,,0000*66
$GNGGA,101557.00,5051.87791,N,00005.24158,W,2,12,0.59,63.3,M,45.4,M,,0000*66
$GNGGA,101557.00,5051.87791,N,00005.24158,W,2,12,0.59,63.3,M,45.4,M,,0000*66
$GNGGA,101557.00,5051.87791,N,00005.24158,W,2,12,0.59,63.3,M,45.4,M,,0000*66
$GNGGA,101557.00,5051.87791,N,00005.24158,W,2,12,0.59,63.3,M,45.4,M,,0000*66
$GNGGA,101557.00,5051.87791,N,00005.24158,W,2,12,0.59,63.3,M,45.4,M,,0000*66
$GNGGA,101557.00,5051.87791,N,00005.24158,W,2,12,0.59,63.3,M,45.4,M,,0000*66
$GNGGA,101557.00,5051.87791,N,00005.24158,W,2,12,0.59,63.3,M,45.4,M,,0000*66
$GNGGA,101557.00,5051.87791,N,00005.24158,W,2,12,0.59,63.3,M,45.4,M,,0000*66
$GNGGA,101557.00,5051.87791,N,00005.24158,W,2,12,0.59,63.3,M,45.4,M,,0000*66
$GNGGA,101557.00,5051.87791,N,00005.24158,W,2,12,0.59,63.3,M,45.4,M,,0000*66
$GNGGA,101557.00,5051.87791,N,00005.24158,W,2,12,0.59,63.3,M,45.4,M,,0000*66
$GNGGA,101557.00,5051.87791,N,00005.24158,W,2,12,0.59,63.3,M,45.4,M,,0000*66
$GNGGA,101557.00,5051.87791,N,00005.24158,W,2,12,0.59,63.3,M,45.4,M,,0000*66
$GNGGA,101557.00,5051.87791,N,00005.24158,W,2,12,0.59,63.3,M,45.4,M,,0000*66
$GNGGA,101557.00,5051.87791,N,00005.24158,W,2,12,0.59,63.3,M,45.4,M,,0000*66
$GNGGA,101557.00,5051.87791,N,00005.24158,W,2,12,0.59,63.3,M,45.4,M,,0000*66
$GNGGA,101557.00,5051.87791,N,00005.24158,W,2,12,0.59,63.3,M,45.4,M,,0000*66
$GNGGA,101557.00,5051.87791,N,00005.24158,W,2,12,0.59,63.3,M,45.4,M,,0000*66
$GNGGA,101557.00,5051.87791,N,00005.24158,W,2,12,0.59,63.3,M,45.4,M,,0000*66
$GNGGA,101557.00,5051.87791,N,00005.24158,W,2,12,0.59,63.3,M,45.4,M,,0000*66
$GNGGA,101557.00,5051.87791,N,00005.24158,W,2,12,0.59,63.3,M,45.4,M,,0000*66
$GNGGA,101557.00,5051.87791,N,00005.24158,W,2,12,0.59,63.3,M,45.4,M,,0000*66
$GNGGA,101557.00,5051.87791,N,00005.24158,W,2,12,0.59,63.3,M,45.4,M,,0000*66
$GNGGA,101557.00,5051.87791,N,00005.24158,W,2,12,0.59,63.3,M,45.4,M,,0000*66
$GNGGA,101557.00,5051.87791,N,00005.24158,W,2,12,0.59,63.3,M,45.4,M,,0000*66
$GNGGA,101557.00,5051.87791,N,00005.24158,W,2,12,0.59,63.3,M,45.4,M,,0000*66
$GNGGA,101557.00,5051.87791,N,00005.24158,W,2,12,0.59,63.3,M,45.4,M,,0000*66
$GNGGA,101557.00,5051.87791,N,00005.24158,W,2,12,0.59,63.3,M,45.4,M,,0000*66
$GNGGA,101557.00,5051.87791,N,00005.24158,W,2,12,0.59,63.3,M,45.4,M,,0000*66
$GNGGA,101557.00,5051.87791,N,00005.24158,W,2,12,0.59,63.3,M,45.4,M,,0000*66
$GNGGA,101557.00,5051.87791,N,00005.24158,W,2,12,0.59,63.3,M,45.4,M,,0000*66
$GNGGA,101557.00,5051.87791,N,00005.24158,W,2,12,0.59,63.3,M,45.4,M,,0000*66
$GNGGA,101557.00,5051.87791,N,00005.24158,W,2,12,0.59,63.3,M,45.4,M,,0000*66
$GNGGA,101557.00,5051.87791,N,00005.24158,W,2,12,0.59,63.3,M,45.4,M,,0000*66
$GNGGA,101557.00,5051.87791,N,00005.24158,W,2,12,0.59,63.3,M,45.4,M,,0000*66
$GNGGA,101557.00,5051.87791,N,00005.24158,W,2,12,0.59,63.3,M,45.4,M,,0000*66
$GNGGA,101557.00,5051.87791,N,00005.24158,W,2,12,0.59,63.3,M,45.4,M,,0000*66
$GNGGA,101557.00,5051.87791,N,00005.24158,W,2,12,0.59,63.3,M,45.4,M,,0000*66
$GNGGA,101557.00,5051.87791,N,00005.24158,W,2,12,0.59,63.3,M,45.4,M,,0000*66
$GNGGA,101557.00,5051.87791,N,00005.24158,W,2,12,0.59,63.3,M,45.4,M,,0000*66
$GNGGA,101557.00,5051.87791,N,00005.24158,W,2,12,0.59,63.3,M,45.4,M,,0000*66
$GNGGA,101557.00,5051.87791,N,00005.24158,W,2,12,0.59,63.3,M,45.4,M,,0000*66
$GNGGA,101557.00,5051.87791,N,00005.24158,W,2,12,0.59,63.3,M,45.4,M,,0000*66
$GNGGA,101557.00,5051.87791,N,00005.24158,W,2,12,0.59,63.3,M,45.4,M,,0000*66
$GNGGA,101557.00,5051.87791,N,00005.24158,W,2,12,0.59,63.3,M,45.4,M,,0000*66
$GNGGA,101557.00,5051.87791,N,00005.24158,W,2,12,0.59,63.3,M,45.4,M,,0000*66
$GNGGA,101557.00,5051.87791,N,00005.24158,W,2,12,0.59,63.3,M,45.4,M,,0000*66
$GNGGA,101557.00,5051.87791,N,00005.24158,W,2,12,0.59,63.3,M,45.4,M,,0000*66
$GNGGA,101557.00,5051.87791,N,00005.24158,W,2,12,0.59,63.3,M,45.4,M,,0000*66
$GNGGA,101557.00,5051.87791,N,00005.24158,W,2,12,0.59,63.3,M,45.4,M,,0000*66
$GNGGA,101557.00,5051.87791,N,00005.24158,W,2,12,0.59,63.3,M,45.4,M,,0000*66
$GNGGA,101557.00,5051.87791,N,00005.24158,W,2,12,0.59,63.3,M,45.4,M,,0000*66
$GNGGA,101557.00,5051.87791,N,00005.24158,W,2,12,0.59,63.3,M,45.4,M,,0000*66
$GNGGA,101557.00,5051.87791,N,00005.24158,W,2,12,0.59,63.3,M,45.4,M,,0000*66
$GNGGA,101557.00,5051.87791,N,00005.24158,W,2,12,0.59,63.3,M,45.4,M,,0000*66
$GNGGA,101557.00,5051.87791,N,00005.24158,W,2,12,0.59,63.3,M,45.4,M,,0000*66
$GNGGA,101557.00,5051.87791,N,00005.24158,W,2,12,0.59,63.3,M,45.4,M,,0000*66
$GNGGA,101557.00,5051.87791,N,00005.24158,W,2,12,0.59,63.3,M,45.4,M,,0000*66
$GNGGA,101557.00,5051.87791,N,00005.24158,W,2,12,0.59,63.3,M,45.4,M,,0000*66
$GNGGA,101557.00,5051.87791,N,00005.24158,W,2,12,0.59,63.3,M,45.4,M,,0000*66
$GNGGA,101557.00,5051.87791,N,00005.24158,W,2,12,0.59,63.3,M,45.4,M,,0000*66
$GNGGA,101557.00,5051.87791,N,00005.24158,W,2,12,0.59,63.3,M,45.4,M,,0000*66
$GNGGA,101557.00,5051.87791,N,00005.24158,W,2,12,0.59,63.3,M,45.4,M,,0000*66
$GNGGA,101557.00,5051.87791,N,00005.24158,W,2,12,0.59,63.3,M,45.4,M,,0000*66
$GNGGA,101557.00,5051.87791,N,00005.24158,W,2,12,0.59,63.3,M,45.4,M,,0000*66
$GNGGA,101557.00,5051.87791,N,00005.24158,W,2,12,0.59,63.3,M,45.4,M,,0000*66
$GNGGA,101557.00,5051.87791,N,00005.24158,W,2,12,0.59,63.3,M,45.4,M,,0000*66
$GNGGA,101557.00,5051.87791,N,00005.24158,W,2,12,0.59,63.3,M,45.4,M,,0000*66
$GNGGA,101558.00,5051.87777,N,00005.24158,W,2,12,0.55,63.3,M,45.4,M,,0000*6D
$GNGGA,101558.00,5051.87777,N,00005.24158,W,2,12,0.55,63.3,M,45.4,M,,0000*6D
$GNGGA,101558.00,5051.87777,N,00005.24158,W,2,12,0.55,63.3,M,45.4,M,,0000*6D
$GNGGA,101558.00,5051.87777,N,00005.24158,W,2,12,0.55,63.3,M,45.4,M,,0000*6D
$GNGGA,101558.00,5051.87777,N,00005.24158,W,2,12,0.55,63.3,M,45.4,M,,0000*6D
$GNGGA,101558.00,5051.87777,N,00005.24158,W,2,12,0.55,63.3,M,45.4,M,,0000*6D
$GNGGA,101558.00,5051.87777,N,00005.24158,W,2,12,0.55,63.3,M,45.4,M,,0000*6D
$GNGGA,101558.00,5051.87777,N,00005.24158,W,2,12,0.55,63.3,M,45.4,M,,0000*6D
$GNGGA,101558.00,5051.87777,N,00005.24158,W,2,12,0.55,63.3,M,45.4,M,,0000*6D
$GNGGA,101558.00,5051.87777,N,00005.24158,W,2,12,0.55,63.3,M,45.4,M,,0000*6D
$GNGGA,101558.00,5051.87777,N,00005.24158,W,2,12,0.55,63.3,M,45.4,M,,0000*6D
$GNGGA,101558.00,5051.87777,N,00005.24158,W,2,12,0.55,63.3,M,45.4,M,,0000*6D
$GNGGA,101558.00,5051.87777,N,00005.24158,W,2,12,0.55,63.3,M,45.4,M,,0000*6D
$GNGGA,101558.00,5051.87777,N,00005.24158,W,2,12,0.55,63.3,M,45.4,M,,0000*6D
$GNGGA,101558.00,5051.87777,N,00005.24158,W,2,12,0.55,63.3,M,45.4,M,,0000*6D
$GNGGA,101558.00,5051.87777,N,00005.24158,W,2,12,0.55,63.3,M,45.4,M,,0000*6D
$GNGGA,101558.00,5051.87777,N,00005.24158,W,2,12,0.55,63.3,M,45.4,M,,0000*6D
$GNGGA,101558.00,5051.87777,N,00005.24158,W,2,12,0.55,63.3,M,45.4,M,,0000*6D
$GNGGA,101558.00,5051.87777,N,00005.24158,W,2,12,0.55,63.3,M,45.4,M,,0000*6D
