$GNGGA,101051.00,5051.96142,N,00005.26778,W,1,12,0.85,51.8,M,45.4,M,,*63
$GNGGA,101051.00,5051.96142,N,00005.26778,W,1,12,0.85,51.8,M,45.4,M,,*63
$GNGGA,101051.00,5051.96142,N,00005.26778,W,1,12,0.85,51.8,M,45.4,M,,*63
$GNGGA,101051.00,5051.96142,N,00005.26778,W,1,12,0.85,51.8,M,45.4,M,,*63
$GNGGA,101051.00,5051.96142,N,00005.26778,W,1,12,0.85,51.8,M,45.4,M,,*63
$GNGGA,101051.00,5051.96142,N,00005.26778,W,1,12,0.85,51.8,M,45.4,M,,*63
$GNGGA,101051.00,5051.96142,N,00005.26778,W,1,12,0.85,51.8,M,45.4,M,,*63
$GNGGA,101051.00,5051.96142,N,00005.26778,W,1,12,0.85,51.8,M,45.4,M,,*63
$GNGGA,101051.00,5051.96142,N,00005.26778,W,1,12,0.85,51.8,M,45.4,M,,*63
$GNGGA,101051.00,5051.96142,N,00005.26778,W,1,12,0.85,51.8,M,45.4,M,,*63
$GNGGA,101051.00,5051.96142,N,00005.26778,W,1,12,0.85,51.8,M,45.4,M,,*63
$GNGGA,101051.00,5051.96142,N,00005.26778,W,1,12,0.85,51.8,M,45.4,M,,*63
$GNGGA,101051.00,5051.96142,N,00005.26778,W,1,12,0.85,51.8,M,45.4,M,,*63
$GNGGA,101051.00,5051.96142,N,00005.26778,W,1,12,0.85,51.8,M,45.4,M,,*63
$GNGGA,101051.00,5051.96142,N,00005.26778,W,1,12,0.85,51.8,M,45.4,M,,*63
$GNGGA,101051.00,5051.96142,N,00005.26778,W,1,12,0.85,51.8,M,45.4,M,,*63
$GNGGA,101051.00,5051.96142,N,00005.26778,W,1,12,0.85,51.8,M,45.4,M,,*63
$GNGGA,101051.00,5051.96142,N,00005.26778,W,1,12,0.85,51.8,M,45.4,M,,*63
$GNGGA,101051.00,5051.96142,N,00005.26778,W,1,12,0.85,51.8,M,45.4,M,,*63
$GNGGA,101051.00,5051.96142,N,00005.26778,W,1,12,0.85,51.8,M,45.4,M,,*63
$GNGGA,101051.00,5051.96142,N,00005.26778,W,1,12,0.85,51.8,M,45.4,M,,*63
$GNGGA,101051.00,5051.96142,N,00005.26778,W,1,12,0.85,51.8,M,45.4,M,,*63
$GNGGA,101051.00,5051.96142,N,00005.26778,W,1,12,0.85,51.8,M,45.4,M,,*63
$GNGGA,101051.00,5051.96142,N,00005.26778,W,1,12,0.85,51.8,M,45.4,M,,*63
$GNGGA,101051.00,5051.96142,N,00005.26778,W,1,12,0.85,51.8,M,45.4,M,,*63
$GNGGA,101051.00,5051.96142,N,00005.26778,W,1,12,0.85,51.8,M,45.4,M,,*63
$GNGGA,101051.00,5051.96142,N,00005.26778,W,1,12,0.85,51.8,M,45.4,M,,*63
$GNGGA,101051.00,5051.96142,N,00005.26778,W,1,12,0.85,51.8,M,45.4,M,,*63
$GNGGA,101051.00,5051.96142,N,00005.26778,W,1,12,0.85,51.8,M,45.4,M,,*63
$GNGGA,101051.00,5051.96142,N,00005.26778,W,1,12,0.85,51.8,M,45.4,M,,*63
$GNGGA,101051.00,5051.96142,N,00005.26778,W,1,12,0.85,51.8,M,45.4,M,,*63
$GNGGA,101051.00,5051.96142,N,00005.26778,W,1,12,0.85,51.8,M,45.4,M,,*63
$GNGGA,101051.00,5051.96142,N,00005.26778,W,1,12,0.85,51.8,M,45.4,M,,*63
$GNGGA,101051.00,5051.96142,N,00005.26778,W,1,12,0.85,51.8,M,45.4,M,,*63
$GNGGA,101051.00,5051.96142,N,00005.26778,W,1,12,0.85,51.8,M,45.4,M,,*63
$GNGGA,101051.00,5051.96142,N,00005.26778,W,1,12,0.85,51.8,M,45.4,M,,*63
$GNGGA,101051.00,5051.96142,N,00005.26778,W,1,12,0.85,51.8,M,45.4,M,,*63
$GNGGA,101051.00,5051.96142,N,00005.26778,W,1,12,0.85,51.8,M,45.4,M,,*63
$GNGGA,101051.00,5051.96142,N,00005.26778,W,1,12,0.85,51.8,M,45.4,M,,*63
$GNGGA,101051.00,5051.96142,N,00005.26778,W,1,12,0.85,51.8,M,45.4,M,,*63
$GNGGA,101051.00,5051.96142,N,00005.26778,W,1,12,0.85,51.8,M,45.4,M,,*63
$GNGGA,101051.00,5051.96142,N,00005.26778,W,1,12,0.85,51.8,M,45.4,M,,*63
$GNGGA,101051.00,5051.96142,N,00005.26778,W,1,12,0.85,51.8,M,45.4,M,,*63
$GNGGA,101051.00,5051.96142,N,00005.26778,W,1,12,0.85,51.8,M,45.4,M,,*63
$GNGGA,101051.00,5051.96142,N,00005.26778,W,1,12,0.85,51.8,M,45.4,M,,*63
$GNGGA,101051.00,5051.96142,N,00005.26778,W,1,12,0.85,51.8,M,45.4,M,,*63
$GNGGA,101051.00,5051.96142,N,00005.26778,W,1,12,0.85,51.8,M,45.4,M,,*63
$GNGGA,101051.00,5051.96142,N,00005.26778,W,1,12,0.85,51.8,M,45.4,M,,*63
$GNGGA,101051.00,5051.96142,N,00005.26778,W,1,12,0.85,51.8,M,45.4,M,,*63
$GNGGA,101051.00,5051.96142,N,00005.26778,W,1,12,0.85,51.8,M,45.4,M,,*63
$GNGGA,101051.00,5051.96142,N,00005.26778,W,1,12,0.85,51.8,M,45.4,M,,*63
$GNGGA,101051.00,5051.96142,N,00005.26778,W,1,12,0.85,51.8,M,45.4,M,,*63
$GNGGA,101051.00,5051.96142,N,00005.26778,W,1,12,0.85,51.8,M,45.4,M,,*63
$GNGGA,101051.00,5051.96142,N,00005.26778,W,1,12,0.85,51.8,M,45.4,M,,*63
$GNGGA,101051.00,5051.96142,N,00005.26778,W,1,12,0.85,51.8,M,45.4,M,,*63
$GNGGA,101051.00,5051.96142,N,00005.26778,W,1,12,0.85,51.8,M,45.4,M,,*63
$GNGGA,101051.00,5051.96142,N,00005.26778,W,1,12,0.85,51.8,M,45.4,M,,*63
$GNGGA,101051.00,5051.96142,N,00005.26778,W,1,12,0.85,51.8,M,45.4,M,,*63
$GNGGA,101051.00,5051.96142,N,00005.26778,W,1,12,0.85,51.8,M,45.4,M,,*63
$GNGGA,101051.00,5051.96142,N,00005.26778,W,1,12,0.85,51.8,M,45.4,M,,*63
$GNGGA,101051.00,5051.96142,N,00005.26778,W,1,12,0.85,51.8,M,45.4,M,,*63
$GNGGA,101051.00,5051.96142,N,00005.26778,W,1,12,0.85,51.8,M,45.4,M,,*63
$GNGGA,101051.00,5051.96142,N,00005.26778,W,1,12,0.85,51.8,M,45.4,M,,*63
$GNGGA,101051.00,5051.96142,N,00005.26778,W,1,12,0.85,51.8,M,45.4,M,,*63
$GNGGA,101051.00,5051.96142,N,00005.26778,W,1,12,0.85,51.8,M,45.4,M,,*63
$GNGGA,101051.00,5051.96142,N,00005.26778,W,1,12,0.85,51.8,M,45.4,M,,*63
$GNGGA,101051.00,5051.96142,N,00005.26778,W,1,12,0.85,51.8,M,45.4,M,,*63
$GNGGA,101051.00,5051.96142,N,00005.26778,W,1,12,0.85,51.8,M,45.4,M,,*63
$GNGGA,101051.00,5051.96142,N,00005.26778,W,1,12,0.85,51.8,M,45.4,M,,*63
$GNGGA,101051.00,5051.96142,N,00005.26778,W,1,12,0.85,51.8,M,45.4,M,,*63
$GNGGA,101051.00,5051.96142,N,00005.26778,W,1,12,0.85,51.8,M,45.4,M,,*63
$GNGGA,101051.00,5051.96142,N,00005.26778,W,1,12,0.85,51.8,M,45.4,M,,*63
$GNGGA,101052.00,5051.96121,N,00005.26734,W,1,12,0.85,53.3,M,45.4,M,,*64
$GNGGA,101052.00,5051.96121,N,00005.26734,W,1,12,0.85,53.3,M,45.4,M,,*64
$GNGGA,101052.00,5051.96121,N,00005.26734,W,1,12,0.85,53.3,M,45.4,M,,*64
$GNGGA,101052.00,5051.96121,N,00005.26734,W,1,12,0.85,53.3,M,45.4,M,,*64
$GNGGA,101052.00,5051.96121,N,00005.26734,W,1,12,0.85,53.3,M,45.4,M,,*64
$GNGGA,101052.00,5051.96121,N,00005.26734,W,1,12,0.85,53.3,M,45.4,M,,*64
$GNGGA,101052.00,5051.96121,N,00005.26734,W,1,12,0.85,53.3,M,45.4,M,,*64
$GNGGA,101052.00,5051.96121,N,00005.26734,W,1,12,0.85,53.3,M,45.4,M,,*64
$GNGGA,101052.00,5051.96121,N,00005.26734,W,1,12,0.85,53.3,M,45.4,M,,*64
$GNGGA,101052.00,5051.96121,N,00005.26734,W,1,12,0.85,53.3,M,45.4,M,,*64
$GNGGA,101052.00,5051.96121,N,00005.26734,W,1,12,0.85,53.3,M,45.4,M,,*64
$GNGGA,101052.00,5051.96121,N,00005.26734,W,1,12,0.85,53.3,M,45.4,M,,*64
$GNGGA,101052.00,5051.96121,N,00005.26734,W,1,12,0.85,53.3,M,45.4,M,,*64
$GNGGA,101052.00,5051.96121,N,00005.26734,W,1,12,0.85,53.3,M,45.4,M,,*64
$GNGGA,101052.00,5051.96121,N,00005.26734,W,1,12,0.85,53.3,M,45.4,M,,*64
$GNGGA,101052.00,5051.96121,N,00005.26734,W,1,12,0.85,53.3,M,45.4,M,,*64
$GNGGA,101052.00,5051.96121,N,00005.26734,W,1,12,0.85,53.3,M,45.4,M,,*64
$GNGGA,101052.00,5051.96121,N,00005.26734,W,1,12,0.85,53.3,M,45.4,M,,*64
$GNGGA,101052.00,5051.96121,N,00005.26734,W,1,12,0.85,53.3,M,45.4,M,,*64
$GNGGA,101052.00,5051.96121,N,00005.26734,W,1,12,0.85,53.3,M,45.4,M,,*64
$GNGGA,101052.00,5051.96121,N,00005.26734,W,1,12,0.85,53.3,M,45.4,M,,*64
$GNGGA,101052.00,5051.96121,N,00005.26734,W,1,12,0.85,53.3,M,45.4,M,,*64
$GNGGA,101052.00,5051.96121,N,00005.26734,W,1,12,0.85,53.3,M,45.4,M,,*64
$GNGGA,101052.00,5051.96121,N,00005.26734,W,1,12,0.85,53.3,M,45.4,M,,*64
$GNGGA,101052.00,5051.96121,N,00005.26734,W,1,12,0.85,53.3,M,45.4,M,,*64
$GNGGA,101052.00,5051.96121,N,00005.26734,W,1,12,0.85,53.3,M,45.4,M,,*64
$GNGGA,101052.00,5051.96121,N,00005.26734,W,1,12,0.85,53.3,M,45.4,M,,*64
$GNGGA,101052.00,5051.96121,N,00005.26734,W,1,12,0.85,53.3,M,45.4,M,,*64
$GNGGA,101052.00,5051.96121,N,00005.26734,W,1,12,0.85,53.3,M,45.4,M,,*64
$GNGGA,101052.00,5051.96121,N,00005.26734,W,1,12,0.85,53.3,M,45.4,M,,*64
$GNGGA,101052.00,5051.96121,N,00005.26734,W,1,12,0.85,53.3,M,45.4,M,,*64
$GNGGA,101052.00,5051.96121,N,00005.26734,W,1,12,0.85,53.3,M,45.4,M,,*64
$GNGGA,101052.00,5051.96121,N,00005.26734,W,1,12,0.85,53.3,M,45.4,M,,*64
$GNGGA,101052.00,5051.96121,N,00005.26734,W,1,12,0.85,53.3,M,45.4,M,,*64
$GNGGA,101052.00,5051.96121,N,00005.26734,W,1,12,0.85,53.3,M,45.4,M,,*64
$GNGGA,101052.00,5051.96121,N,00005.26734,W,1,12,0.85,53.3,M,45.4,M,,*64
$GNGGA,101052.00,5051.96121,N,00005.26734,W,1,12,0.85,53.3,M,45.4,M,,*64
$GNGGA,101052.00,5051.96121,N,00005.26734,W,1,12,0.85,53.3,M,45.4,M,,*64
$GNGGA,101052.00,5051.96121,N,00005.26734,W,1,12,0.85,53.3,M,45.4,M,,*64
$GNGGA,101052.00,5051.96121,N,00005.26734,W,1,12,0.85,53.3,M,45.4,M,,*64
$GNGGA,101052.00,5051.96121,N,00005.26734,W,1,12,0.85,53.3,M,45.4,M,,*64
$GNGGA,101052.00,5051.96121,N,00005.26734,W,1,12,0.85,53.3,M,45.4,M,,*64
$GNGGA,101052.00,5051.96121,N,00005.26734,W,1,12,0.85,53.3,M,45.4,M,,*64
$GNGGA,101052.00,5051.96121,N,00005.26734,W,1,12,0.85,53.3,M,45.4,M,,*64
$GNGGA,101052.00,5051.96121,N,00005.26734,W,1,12,0.85,53.3,M,45.4,M,,*64
$GNGGA,101052.00,5051.96121,N,00005.26734,W,1,12,0.85,53.3,M,45.4,M,,*64
$GNGGA,101052.00,5051.96121,N,00005.26734,W,1,12,0.85,53.3,M,45.4,M,,*64
$GNGGA,101052.00,5051.96121,N,00005.26734,W,1,12,0.85,53.3,M,45.4,M,,*64
$GNGGA,101052.00,5051.96121,N,00005.26734,W,1,12,0.85,53.3,M,45.4,M,,*64
$GNGGA,101052.00,5051.96121,N,00005.26734,W,1,12,0.85,53.3,M,45.4,M,,*64
$GNGGA,101052.00,5051.96121,N,00005.26734,W,1,12,0.85,53.3,M,45.4,M,,*64
$GNGGA,101052.00,5051.96121,N,00005.26734,W,1,12,0.85,53.3,M,45.4,M,,*64
$GNGGA,101052.00,5051.96121,N,00005.26734,W,1,12,0.85,53.3,M,45.4,M,,*64
$GNGGA,101052.00,5051.96121,N,00005.26734,W,1,12,0.85,53.3,M,45.4,M,,*64
$GNGGA,101052.00,5051.96121,N,00005.26734,W,1,12,0.85,53.3,M,45.4,M,,*64
$GNGGA,101052.00,5051.96121,N,00005.26734,W,1,12,0.85,53.3,M,45.4,M,,*64
$GNGGA,101052.00,5051.96121,N,00005.26734,W,1,12,0.85,53.3,M,45.4,M,,*64
$GNGGA,101052.00,5051.96121,N,00005.26734,W,1,12,0.85,53.3,M,45.4,M,,*64
$GNGGA,101052.00,5051.96121,N,00005.26734,W,1,12,0.85,53.3,M,45.4,M,,*64
$GNGGA,101052.00,5051.96121,N,00005.26734,W,1,12,0.85,53.3,M,45.4,M,,*64
$GNGGA,101052.00,5051.96121,N,00005.26734,W,1,12,0.85,53.3,M,45.4,M,,*64
$GNGGA,101052.00,5051.96121,N,00005.26734,W,1,12,0.85,53.3,M,45.4,M,,*64
$GNGGA,101052.00,5051.96121,N,00005.26734,W,1,12,0.85,53.3,M,45.4,M,,*64
$GNGGA,101052.00,5051.96121,N,00005.26734,W,1,12,0.85,53.3,M,45.4,M,,*64
$GNGGA,101052.00,5051.96121,N,00005.26734,W,1,12,0.85,53.3,M,45.4,M,,*64
$GNGGA,101052.00,5051.96121,N,00005.26734,W,1,12,0.85,53.3,M,45.4,M,,*64
$GNGGA,101052.00,5051.96121,N,00005.26734,W,1,12,0.85,53.3,M,45.4,M,,*64
$GNGGA,101052.00,5051.96121,N,00005.26734,W,1,12,0.85,53.3,M,45.4,M,,*64
$GNGGA,101052.00,5051.96121,N,00005.26734,W,1,12,0.85,53.3,M,45.4,M,,*64
$GNGGA,101052.00,5051.96121,N,00005.26734,W,1,12,0.85,53.3,M,45.4,M,,*64
$GNGGA,101052.00,5051.96121,N,00005.26734,W,1,12,0.85,53.3,M,45.4,M,,*64
$GNGGA,101052.00,5051.96121,N,00005.26734,W,1,12,0.85,53.3,M,45.4,M,,*64
$GNGGA,101053.00,5051.96103,N,00005.26699,W,1,12,0.85,54.5,M,45.4,M,,*62
$GNGGA,101053.00,5051.96103,N,00005.26699,W,1,12,0.85,54.5,M,45.4,M,,*62
$GNGGA,101053.00,5051.96103,N,00005.26699,W,1,12,0.85,54.5,M,45.4,M,,*62
$GNGGA,101053.00,5051.96103,N,00005.26699,W,1,12,0.85,54.5,M,45.4,M,,*62
$GNGGA,101053.00,5051.96103,N,00005.26699,W,1,12,0.85,54.5,M,45.4,M,,*62
$GNGGA,101053.00,5051.96103,N,00005.26699,W,1,12,0.85,54.5,M,45.4,M,,*62
$GNGGA,101053.00,5051.96103,N,00005.26699,W,1,12,0.85,54.5,M,45.4,M,,*62
$GNGGA,101053.00,5051.96103,N,00005.26699,W,1,12,0.85,54.5,M,45.4,M,,*62
$GNGGA,101053.00,5051.96103,N,00005.26699,W,1,12,0.85,54.5,M,45.4,M,,*62
$GNGGA,101053.00,5051.96103,N,00005.26699,W,1,12,0.85,54.5,M,45.4,M,,*62
$GNGGA,101053.00,5051.96103,N,00005.26699,W,1,12,0.85,54.5,M,45.4,M,,*62
$GNGGA,101053.00,5051.96103,N,00005.26699,W,1,12,0.85,54.5,M,45.4,M,,*62
$GNGGA,101053.00,5051.96103,N,00005.26699,W,1,12,0.85,54.5,M,45.4,M,,*62
$GNGGA,101053.00,5051.96103,N,00005.26699,W,1,12,0.85,54.5,M,45.4,M,,*62
$GNGGA,101053.00,5051.96103,N,00005.26699,W,1,12,0.85,54.5,M,45.4,M,,*62
$GNGGA,101053.00,5051.96103,N,00005.26699,W,1,12,0.85,54.5,M,45.4,M,,*62
$GNGGA,101053.00,5051.96103,N,00005.26699,W,1,12,0.85,54.5,M,45.4,M,,*62
$GNGGA,101053.00,5051.96103,N,00005.26699,W,1,12,0.85,54.5,M,45.4,M,,*62
$GNGGA,101053.00,5051.96103,N,00005.26699,W,1,12,0.85,54.5,M,45.4,M,,*62
$GNGGA,101053.00,5051.96103,N,00005.26699,W,1,12,0.85,54.5,M,45.4,M,,*62
$GNGGA,101053.00,5051.96103,N,00005.26699,W,1,12,0.85,54.5,M,45.4,M,,*62
$GNGGA,101053.00,5051.96103,N,00005.26699,W,1,12,0.85,54.5,M,45.4,M,,*62
$GNGGA,101053.00,5051.96103,N,00005.26699,W,1,12,0.85,54.5,M,45.4,M,,*62
$GNGGA,101053.00,5051.96103,N,00005.26699,W,1,12,0.85,54.5,M,45.4,M,,*62
$GNGGA,101053.00,5051.96103,N,00005.26699,W,1,12,0.85,54.5,M,45.4,M,,*62
$GNGGA,101053.00,5051.96103,N,00005.26699,W,1,12,0.85,54.5,M,45.4,M,,*62
$GNGGA,101053.00,5051.96103,N,00005.26699,W,1,12,0.85,54.5,M,45.4,M,,*62
$GNGGA,101053.00,5051.96103,N,00005.26699,W,1,12,0.85,54.5,M,45.4,M,,*62
$GNGGA,101053.00,5051.96103,N,00005.26699,W,1,12,0.85,54.5,M,45.4,M,,*62
$GNGGA,101053.00,5051.96103,N,00005.26699,W,1,12,0.85,54.5,M,45.4,M,,*62
$GNGGA,101053.00,5051.96103,N,00005.26699,W,1,12,0.85,54.5,M,45.4,M,,*62
$GNGGA,101053.00,5051.96103,N,00005.26699,W,1,12,0.85,54.5,M,45.4,M,,*62
$GNGGA,101053.00,5051.96103,N,00005.26699,W,1,12,0.85,54.5,M,45.4,M,,*62
$GNGGA,101053.00,5051.96103,N,00005.26699,W,1,12,0.85,54.5,M,45.4,M,,*62
$GNGGA,101053.00,5051.96103,N,00005.26699,W,1,12,0.85,54.5,M,45.4,M,,*62
$GNGGA,101053.00,5051.96103,N,00005.26699,W,1,12,0.85,54.5,M,45.4,M,,*62
$GNGGA,101053.00,5051.96103,N,00005.26699,W,1,12,0.85,54.5,M,45.4,M,,*62
$GNGGA,101053.00,5051.96103,N,00005.26699,W,1,12,0.85,54.5,M,45.4,M,,*62
$GNGGA,101053.00,5051.96103,N,00005.26699,W,1,12,0.85,54.5,M,45.4,M,,*62
$GNGGA,101053.00,5051.96103,N,00005.26699,W,1,12,0.85,54.5,M,45.4,M,,*62
$GNGGA,101053.00,5051.96103,N,00005.26699,W,1,12,0.85,54.5,M,45.4,M,,*62
$GNGGA,101053.00,5051.96103,N,00005.26699,W,1,12,0.85,54.5,M,45.4,M,,*62
$GNGGA,101053.00,5051.96103,N,00005.26699,W,1,12,0.85,54.5,M,45.4,M,,*62
$GNGGA,101053.00,5051.96103,N,00005.26699,W,1,12,0.85,54.5,M,45.4,M,,*62
$GNGGA,101053.00,5051.96103,N,00005.26699,W,1,12,0.85,54.5,M,45.4,M,,*62
$GNGGA,101053.00,5051.96103,N,00005.26699,W,1,12,0.85,54.5,M,45.4,M,,*62
$GNGGA,101053.00,5051.96103,N,00005.26699,W,1,12,0.85,54.5,M,45.4,M,,*62
$GNGGA,101053.00,5051.96103,N,00005.26699,W,1,12,0.85,54.5,M,45.4,M,,*62
$GNGGA,101053.00,5051.96103,N,00005.26699,W,1,12,0.85,54.5,M,45.4,M,,*62
$GNGGA,101053.00,5051.96103,N,00005.26699,W,1,12,0.85,54.5,M,45.4,M,,*62
$GNGGA,101053.00,5051.96103,N,00005.26699,W,1,12,0.85,54.5,M,45.4,M,,*62
$GNGGA,101053.00,5051.96103,N,00005.26699,W,1,12,0.85,54.5,M,45.4,M,,*62
$GNGGA,101053.00,5051.96103,N,00005.26699,W,1,12,0.85,54.5,M,45.4,M,,*62
$GNGGA,101053.00,5051.96103,N,00005.26699,W,1,12,0.85,54.5,M,45.4,M,,*62
$GNGGA,101053.00,5051.96103,N,00005.26699,W,1,12,0.85,54.5,M,45.4,M,,*62
$GNGGA,101053.00,5051.96103,N,00005.26699,W,1,12,0.85,54.5,M,45.4,M,,*62
$GNGGA,101053.00,5051.96103,N,00005.26699,W,1,12,0.85,54.5,M,45.4,M,,*62
$GNGGA,101053.00,5051.96103,N,00005.26699,W,1,12,0.85,54.5,M,45.4,M,,*62
$GNGGA,101053.00,5051.96103,N,00005.26699,W,1,12,0.85,54.5,M,45.4,M,,*62
$GNGGA,101053.00,5051.96103,N,00005.26699,W,1,12,0.85,54.5,M,45.4,M,,*62
$GNGGA,101053.00,5051.96103,N,00005.26699,W,1,12,0.85,54.5,M,45.4,M,,*62
$GNGGA,101053.00,5051.96103,N,00005.26699,W,1,12,0.85,54.5,M,45.4,M,,*62
$GNGGA,101053.00,5051.96103,N,00005.26699,W,1,12,0.85,54.5,M,45.4,M,,*62
$GNGGA,101053.00,5051.96103,N,00005.26699,W,1,12,0.85,54.5,M,45.4,M,,*62
$GNGGA,101053.00,5051.96103,N,00005.26699,W,1,12,0.85,54.5,M,45.4,M,,*62
$GNGGA,101053.00,5051.96103,N,00005.26699,W,1,12,0.85,54.5,M,45.4,M,,*62
$GNGGA,101053.00,5051.96103,N,00005.26699,W,1,12,0.85,54.5,M,45.4,M,,*62
$GNGGA,101053.00,5051.96103,N,00005.26699,W,1,12,0.85,54.5,M,45.4,M,,*62
$GNGGA,101053.00,5051.96103,N,00005.26699,W,1,12,0.85,54.5,M,45.4,M,,*62
$GNGGA,101053.00,5051.96103,N,00005.26699,W,1,12,0.85,54.5,M,45.4,M,,*62
$GNGGA,101053.00,5051.96103,N,00005.26699,W,1,12,0.85,54.5,M,45.4,M,,*62
$GNGGA,101053.00,5051.96103,N,00005.26699,W,1,12,0.85,54.5,M,45.4,M,,*62
$GNGGA,101054.00,5051.96090,N,00005.26674,W,1,12,0.85,55.5,M,45.4,M,,*6C
$GNGGA,101054.00,5051.96090,N,00005.26674,W,1,12,0.85,55.5,M,45.4,M,,*6C
$GNGGA,101054.00,5051.96090,N,00005.26674,W,1,12,0.85,55.5,M,45.4,M,,*6C
$GNGGA,101054.00,5051.96090,N,00005.26674,W,1,12,0.85,55.5,M,45.4,M,,*6C
$GNGGA,101054.00,5051.96090,N,00005.26674,W,1,12,0.85,55.5,M,45.4,M,,*6C
$GNGGA,101054.00,5051.96090,N,00005.26674,W,1,12,0.85,55.5,M,45.4,M,,*6C
$GNGGA,101054.00,5051.96090,N,00005.26674,W,1,12,0.85,55.5,M,45.4,M,,*6C
$GNGGA,101054.00,5051.96090,N,00005.26674,W,1,12,0.85,55.5,M,45.4,M,,*6C
$GNGGA,101054.00,5051.96090,N,00005.26674,W,1,12,0.85,55.5,M,45.4,M,,*6C
$GNGGA,101054.00,5051.96090,N,00005.26674,W,1,12,0.85,55.5,M,45.4,M,,*6C
$GNGGA,101054.00,5051.96090,N,00005.26674,W,1,12,0.85,55.5,M,45.4,M,,*6C
$GNGGA,101054.00,5051.96090,N,00005.26674,W,1,12,0.85,55.5,M,45.4,M,,*6C
$GNGGA,101054.00,5051.96090,N,00005.26674,W,1,12,0.85,55.5,M,45.4,M,,*6C
$GNGGA,101054.00,5051.96090,N,00005.26674,W,1,12,0.85,55.5,M,45.4,M,,*6C
$GNGGA,101054.00,5051.96090,N,00005.26674,W,1,12,0.85,55.5,M,45.4,M,,*6C
$GNGGA,101054.00,5051.96090,N,00005.26674,W,1,12,0.85,55.5,M,45.4,M,,*6C
$GNGGA,101054.00,5051.96090,N,00005.26674,W,1,12,0.85,55.5,M,45.4,M,,*6C
$GNGGA,101054.00,5051.96090,N,00005.26674,W,1,12,0.85,55.5,M,45.4,M,,*6C
$GNGGA,101054.00,5051.96090,N,00005.26674,W,1,12,0.85,55.5,M,45.4,M,,*6C
$GNGGA,101054.00,5051.96090,N,00005.26674,W,1,12,0.85,55.5,M,45.4,M,,*6C
$GNGGA,101054.00,5051.96090,N,00005.26674,W,1,12,0.85,55.5,M,45.4,M,,*6C
$GNGGA,101054.00,5051.96090,N,00005.26674,W,1,12,0.85,55.5,M,45.4,M,,*6C
$GNGGA,101054.00,5051.96090,N,00005.26674,W,1,12,0.85,55.5,M,45.4,M,,*6C
$GNGGA,101054.00,5051.96090,N,00005.26674,W,1,12,0.85,55.5,M,45.4,M,,*6C
$GNGGA,101054.00,5051.96090,N,00005.26674,W,1,12,0.85,55.5,M,45.4,M,,*6C
$GNGGA,101054.00,5051.96090,N,00005.26674,W,1,12,0.85,55.5,M,45.4,M,,*6C
$GNGGA,101054.00,5051.96090,N,00005.26674,W,1,12,0.85,55.5,M,45.4,M,,*6C
$GNGGA,101054.00,5051.96090,N,00005.26674,W,1,12,0.85,55.5,M,45.4,M,,*6C
$GNGGA,101054.00,5051.96090,N,00005.26674,W,1,12,0.85,55.5,M,45.4,M,,*6C
$GNGGA,101054.00,5051.96090,N,00005.26674,W,1,12,0.85,55.5,M,45.4,M,,*6C
$GNGGA,101054.00,5051.96090,N,00005.26674,W,1,12,0.85,55.5,M,45.4,M,,*6C
$GNGGA,101054.00,5051.96090,N,00005.26674,W,1,12,0.85,55.5,M,45.4,M,,*6C
$GNGGA,101054.00,5051.96090,N,00005.26674,W,1,12,0.85,55.5,M,45.4,M,,*6C
$GNGGA,101054.00,5051.96090,N,00005.26674,W,1,12,0.85,55.5,M,45.4,M,,*6C
$GNGGA,101054.00,5051.96090,N,00005.26674,W,1,12,0.85,55.5,M,45.4,M,,*6C
$GNGGA,101054.00,5051.96090,N,00005.26674,W,1,12,0.85,55.5,M,45.4,M,,*6C
$GNGGA,101054.00,5051.96090,N,00005.26674,W,1,12,0.85,55.5,M,45.4,M,,*6C
$GNGGA,101054.00,5051.96090,N,00005.26674,W,1,12,0.85,55.5,M,45.4,M,,*6C
$GNGGA,101054.00,5051.96090,N,00005.26674,W,1,12,0.85,55.5,M,45.4,M,,*6C
$GNGGA,101054.00,5051.96090,N,00005.26674,W,1,12,0.85,55.5,M,45.4,M,,*6C
$GNGGA,101054.00,5051.96090,N,00005.26674,W,1,12,0.85,55.5,M,45.4,M,,*6C
$GNGGA,101054.00,5051.96090,N,00005.26674,W,1,12,0.85,55.5,M,45.4,M,,*6C
$GNGGA,101054.00,5051.96090,N,00005.26674,W,1,12,0.85,55.5,M,45.4,M,,*6C
$GNGGA,101054.00,5051.96090,N,00005.26674,W,1,12,0.85,55.5,M,45.4,M,,*6C
$GNGGA,101054.00,5051.96090,N,00005.26674,W,1,12,0.85,55.5,M,45.4,M,,*6C
$GNGGA,101054.00,5051.96090,N,00005.26674,W,1,12,0.85,55.5,M,45.4,M,,*6C
$GNGGA,101054.00,5051.96090,N,00005.26674,W,1,12,0.85,55.5,M,45.4,M,,*6C
$GNGGA,101054.00,5051.96090,N,00005.26674,W,1,12,0.85,55.5,M,45.4,M,,*6C
$GNGGA,101054.00,5051.96090,N,00005.26674,W,1,12,0.85,55.5,M,45.4,M,,*6C
$GNGGA,101054.00,5051.96090,N,00005.26674,W,1,12,0.85,55.5,M,45.4,M,,*6C
$GNGGA,101054.00,5051.96090,N,00005.26674,W,1,12,0.85,55.5,M,45.4,M,,*6C
$GNGGA,101054.00,5051.96090,N,00005.26674,W,1,12,0.85,55.5,M,45.4,M,,*6C
$GNGGA,101054.00,5051.96090,N,00005.26674,W,1,12,0.85,55.5,M,45.4,M,,*6C
$GNGGA,101054.00,5051.96090,N,00005.26674,W,1,12,0.85,55.5,M,45.4,M,,*6C
$GNGGA,101054.00,5051.96090,N,00005.26674,W,1,12,0.85,55.5,M,45.4,M,,*6C
$GNGGA,101054.00,5051.96090,N,00005.26674,W,1,12,0.85,55.5,M,45.4,M,,*6C
$GNGGA,101054.00,5051.96090,N,00005.26674,W,1,12,0.85,55.5,M,45.4,M,,*6C
$GNGGA,101054.00,5051.96090,N,00005.26674,W,1,12,0.85,55.5,M,45.4,M,,*6C
$GNGGA,101054.00,5051.96090,N,00005.26674,W,1,12,0.85,55.5,M,45.4,M,,*6C
$GNGGA,101054.00,5051.96090,N,00005.26674,W,1,12,0.85,55.5,M,45.4,M,,*6C
$GNGGA,101054.00,5051.96090,N,00005.26674,W,1,12,0.85,55.5,M,45.4,M,,*6C
$GNGGA,101054.00,5051.96090,N,00005.26674,W,1,12,0.85,55.5,M,45.4,M,,*6C
$GNGGA,101054.00,5051.96090,N,00005.26674,W,1,12,0.85,55.5,M,45.4,M,,*6C
$GNGGA,101054.00,5051.96090,N,00005.26674,W,1,12,0.85,55.5,M,45.4,M,,*6C
$GNGGA,101054.00,5051.96090,N,00005.26674,W,1,12,0.85,55.5,M,45.4,M,,*6C
$GNGGA,101054.00,5051.96090,N,00005.26674,W,1,12,0.85,55.5,M,45.4,M,,*6C
$GNGGA,101054.00,5051.96090,N,00005.26674,W,1,12,0.85,55.5,M,45.4,M,,*6C
$GNGGA,101054.00,5051.96090,N,00005.26674,W,1,12,0.85,55.5,M,45.4,M,,*6C
$GNGGA,101054.00,5051.96090,N,00005.26674,W,1,12,0.85,55.5,M,45.4,M,,*6C
$GNGGA,101054.00,5051.96090,N,00005.26674,W,1,12,0.85,55.5,M,45.4,M,,*6C
$GNGGA,101054.00,5051.96090,N,00005.26674,W,1,12,0.85,55.5,M,45.4,M,,*6C
$GNGGA,101054.00,5051.96090,N,00005.26674,W,1,12,0.85,55.5,M,45.4,M,,*6C
$GNGGA,101103.00,5051.96026,N,00005.26552,W,1,12,0.80,61.0,M,45.4,M,,*62
$GNGGA,101103.00,5051.96026,N,00005.26552,W,1,12,0.80,61.0,M,45.4,M,,*62
$GNGGA,101103.00,5051.96026,N,00005.26552,W,1,12,0.80,61.0,M,45.4,M,,*62
$GNGGA,101103.00,5051.96026,N,00005.26552,W,1,12,0.80,61.0,M,45.4,M,,*62
$GNGGA,101103.00,5051.96026,N,00005.26552,W,1,12,0.80,61.0,M,45.4,M,,*62
$GNGGA,101103.00,5051.96026,N,00005.26552,W,1,12,0.80,61.0,M,45.4,M,,*62
$GNGGA,101103.00,5051.96026,N,00005.26552,W,1,12,0.80,61.0,M,45.4,M,,*62
$GNGGA,101103.00,5051.96026,N,00005.26552,W,1,12,0.80,61.0,M,45.4,M,,*62
$GNGGA,101103.00,5051.96026,N,00005.26552,W,1,12,0.80,61.0,M,45.4,M,,*62
$GNGGA,101103.00,5051.96026,N,00005.26552,W,1,12,0.80,61.0,M,45.4,M,,*62
$GNGGA,101103.00,5051.96026,N,00005.26552,W,1,12,0.80,61.0,M,45.4,M,,*62
$GNGGA,101103.00,5051.96026,N,00005.26552,W,1,12,0.80,61.0,M,45.4,M,,*62
$GNGGA,101103.00,5051.96026,N,00005.26552,W,1,12,0.80,61.0,M,45.4,M,,*62
$GNGGA,101103.00,5051.96026,N,00005.26552,W,1,12,0.80,61.0,M,45.4,M,,*62
$GNGGA,101103.00,5051.96026,N,00005.26552,W,1,12,0.80,61.0,M,45.4,M,,*62
$GNGGA,101103.00,5051.96026,N,00005.26552,W,1,12,0.80,61.0,M,45.4,M,,*62
$GNGGA,101103.00,5051.96026,N,00005.26552,W,1,12,0.80,61.0,M,45.4,M,,*62
$GNGGA,101103.00,5051.96026,N,00005.26552,W,1,12,0.80,61.0,M,45.4,M,,*62
$GNGGA,101103.00,5051.96026,N,00005.26552,W,1,12,0.80,61.0,M,45.4,M,,*62
$GNGGA,101103.00,5051.96026,N,00005.26552,W,1,12,0.80,61.0,M,45.4,M,,*62
$GNGGA,101103.00,5051.96026,N,00005.26552,W,1,12,0.80,61.0,M,45.4,M,,*62
$GNGGA,101103.00,5051.96026,N,00005.26552,W,1,12,0.80,61.0,M,45.4,M,,*62
$GNGGA,101103.00,5051.96026,N,00005.26552,W,1,12,0.80,61.0,M,45.4,M,,*62
$GNGGA,101103.00,5051.96026,N,00005.26552,W,1,12,0.80,61.0,M,45.4,M,,*62
$GNGGA,101103.00,5051.96026,N,00005.26552,W,1,12,0.80,61.0,M,45.4,M,,*62
$GNGGA,101103.00,5051.96026,N,00005.26552,W,1,12,0.80,61.0,M,45.4,M,,*62
$GNGGA,101103.00,5051.96026,N,00005.26552,W,1,12,0.80,61.0,M,45.4,M,,*62
$GNGGA,101103.00,5051.96026,N,00005.26552,W,1,12,0.80,61.0,M,45.4,M,,*62
$GNGGA,101103.00,5051.96026,N,00005.26552,W,1,12,0.80,61.0,M,45.4,M,,*62
$GNGGA,101103.00,5051.96026,N,00005.26552,W,1,12,0.80,61.0,M,45.4,M,,*62
$GNGGA,101103.00,5051.96026,N,00005.26552,W,1,12,0.80,61.0,M,45.4,M,,*62
$GNGGA,101103.00,5051.96026,N,00005.26552,W,1,12,0.80,61.0,M,45.4,M,,*62
$GNGGA,101103.00,5051.96026,N,00005.26552,W,1,12,0.80,61.0,M,45.4,M,,*62
$GNGGA,101103.00,5051.96026,N,00005.26552,W,1,12,0.80,61.0,M,45.4,M,,*62
$GNGGA,101103.00,5051.96026,N,00005.26552,W,1,12,0.80,61.0,M,45.4,M,,*62
$GNGGA,101103.00,5051.96026,N,00005.26552,W,1,12,0.80,61.0,M,45.4,M,,*62
$GNGGA,101103.00,5051.96026,N,00005.26552,W,1,12,0.80,61.0,M,45.4,M,,*62
$GNGGA,101103.00,5051.96026,N,00005.26552,W,1,12,0.80,61.0,M,45.4,M,,*62
$GNGGA,101103.00,5051.96026,N,00005.26552,W,1,12,0.80,61.0,M,45.4,M,,*62
$GNGGA,101103.00,5051.96026,N,00005.26552,W,1,12,0.80,61.0,M,45.4,M,,*62
$GNGGA,101103.00,5051.96026,N,00005.26552,W,1,12,0.80,61.0,M,45.4,M,,*62
$GNGGA,101103.00,5051.96026,N,00005.26552,W,1,12,0.80,61.0,M,45.4,M,,*62
$GNGGA,101103.00,5051.96026,N,00005.26552,W,1,12,0.80,61.0,M,45.4,M,,*62
$GNGGA,101103.00,5051.96026,N,00005.26552,W,1,12,0.80,61.0,M,45.4,M,,*62
$GNGGA,101103.00,5051.96026,N,00005.26552,W,1,12,0.80,61.0,M,45.4,M,,*62
$GNGGA,101103.00,5051.96026,N,00005.26552,W,1,12,0.80,61.0,M,45.4,M,,*62
$GNGGA,101103.00,5051.96026,N,00005.26552,W,1,12,0.80,61.0,M,45.4,M,,*62
$GNGGA,101103.00,5051.96026,N,00005.26552,W,1,12,0.80,61.0,M,45.4,M,,*62
$GNGGA,101103.00,5051.96026,N,00005.26552,W,1,12,0.80,61.0,M,45.4,M,,*62
$GNGGA,101103.00,5051.96026,N,00005.26552,W,1,12,0.80,61.0,M,45.4,M,,*62
$GNGGA,101103.00,5051.96026,N,00005.26552,W,1,12,0.80,61.0,M,45.4,M,,*62
$GNGGA,101103.00,5051.96026,N,00005.26552,W,1,12,0.80,61.0,M,45.4,M,,*62
$GNGGA,101103.00,5051.96026,N,00005.26552,W,1,12,0.80,61.0,M,45.4,M,,*62
$GNGGA,101103.00,5051.96026,N,00005.26552,W,1,12,0.80,61.0,M,45.4,M,,*62
$GNGGA,101103.00,5051.96026,N,00005.26552,W,1,12,0.80,61.0,M,45.4,M,,*62
$GNGGA,101103.00,5051.96026,N,00005.26552,W,1,12,0.80,61.0,M,45.4,M,,*62
$GNGGA,101103.00,5051.96026,N,00005.26552,W,1,12,0.80,61.0,M,45.4,M,,*62
$GNGGA,101103.00,5051.96026,N,00005.26552,W,1,12,0.80,61.0,M,45.4,M,,*62
$GNGGA,101103.00,5051.96026,N,00005.26552,W,1,12,0.80,61.0,M,45.4,M,,*62
$GNGGA,101103.00,5051.96026,N,00005.26552,W,1,12,0.80,61.0,M,45.4,M,,*62
$GNGGA,101103.00,5051.96026,N,00005.26552,W,1,12,0.80,61.0,M,45.4,M,,*62
$GNGGA,101103.00,5051.96026,N,00005.26552,W,1,12,0.80,61.0,M,45.4,M,,*62
$GNGGA,101103.00,5051.96026,N,00005.26552,W,1,12,0.80,61.0,M,45.4,M,,*62
$GNGGA,101103.00,5051.96026,N,00005.26552,W,1,12,0.80,61.0,M,45.4,M,,*62
$GNGGA,101103.00,5051.96026,N,00005.26552,W,1,12,0.80,61.0,M,45.4,M,,*62
$GNGGA,101103.00,5051.96026,N,00005.26552,W,1,12,0.80,61.0,M,45.4,M,,*62
$GNGGA,101103.00,5051.96026,N,00005.26552,W,1,12,0.80,61.0,M,45.4,M,,*62
$GNGGA,101103.00,5051.96026,N,00005.26552,W,1,12,0.80,61.0,M,45.4,M,,*62
$GNGGA,101103.00,5051.96026,N,00005.26552,W,1,12,0.80,61.0,M,45.4,M,,*62
$GNGGA,101103.00,5051.96026,N,00005.26552,W,1,12,0.80,61.0,M,45.4,M,,*62
$GNGGA,101103.00,5051.96026,N,00005.26552,W,1,12,0.80,61.0,M,45.4,M,,*62
$GNGGA,101103.00,5051.96026,N,00005.26552,W,1,12,0.80,61.0,M,45.4,M,,*62
$GNGGA,101104.00,5051.96022,N,00005.26545,W,1,12,0.80,61.5,M,45.4,M,,*62
$GNGGA,101104.00,5051.96022,N,00005.26545,W,1,12,0.80,61.5,M,45.4,M,,*62
$GNGGA,101104.00,5051.96022,N,00005.26545,W,1,12,0.80,61.5,M,45.4,M,,*62
$GNGGA,101104.00,5051.96022,N,00005.26545,W,1,12,0.80,61.5,M,45.4,M,,*62
$GNGGA,101104.00,5051.96022,N,00005.26545,W,1,12,0.80,61.5,M,45.4,M,,*62
$GNGGA,101104.00,5051.96022,N,00005.26545,W,1,12,0.80,61.5,M,45.4,M,,*62
$GNGGA,101104.00,5051.96022,N,00005.26545,W,1,12,0.80,61.5,M,45.4,M,,*62
$GNGGA,101104.00,5051.96022,N,00005.26545,W,1,12,0.80,61.5,M,45.4,M,,*62
$GNGGA,101104.00,5051.96022,N,00005.26545,W,1,12,0.80,61.5,M,45.4,M,,*62
$GNGGA,101104.00,5051.96022,N,00005.26545,W,1,12,0.80,61.5,M,45.4,M,,*62
$GNGGA,101104.00,5051.96022,N,00005.26545,W,1,12,0.80,61.5,M,45.4,M,,*62
$GNGGA,101104.00,5051.96022,N,00005.26545,W,1,12,0.80,61.5,M,45.4,M,,*62
$GNGGA,101104.00,5051.96022,N,00005.26545,W,1,12,0.80,61.5,M,45.4,M,,*62
$GNGGA,101104.00,5051.96022,N,00005.26545,W,1,12,0.80,61.5,M,45.4,M,,*62
$GNGGA,101104.00,5051.96022,N,00005.26545,W,1,12,0.80,61.5,M,45.4,M,,*62
$GNGGA,101104.00,5051.96022,N,00005.26545,W,1,12,0.80,61.5,M,45.4,M,,*62
$GNGGA,101104.00,5051.96022,N,00005.26545,W,1,12,0.80,61.5,M,45.4,M,,*62
$GNGGA,101104.00,5051.96022,N,00005.26545,W,1,12,0.80,61.5,M,45.4,M,,*62
$GNGGA,101104.00,5051.96022,N,00005.26545,W,1,12,0.80,61.5,M,45.4,M,,*62
$GNGGA,101104.00,5051.96022,N,00005.26545,W,1,12,0.80,61.5,M,45.4,M,,*62
$GNGGA,101104.00,5051.96022,N,00005.26545,W,1,12,0.80,61.5,M,45.4,M,,*62
$GNGGA,101104.00,5051.96022,N,00005.26545,W,1,12,0.80,61.5,M,45.4,M,,*62
$GNGGA,101104.00,5051.96022,N,00005.26545,W,1,12,0.80,61.5,M,45.4,M,,*62
$GNGGA,101104.00,5051.96022,N,00005.26545,W,1,12,0.80,61.5,M,45.4,M,,*62
$GNGGA,101104.00,5051.96022,N,00005.26545,W,1,12,0.80,61.5,M,45.4,M,,*62
$GNGGA,101104.00,5051.96022,N,00005.26545,W,1,12,0.80,61.5,M,45.4,M,,*62
$GNGGA,101104.00,5051.96022,N,00005.26545,W,1,12,0.80,61.5,M,45.4,M,,*62
$GNGGA,101104.00,5051.96022,N,00005.26545,W,1,12,0.80,61.5,M,45.4,M,,*62
$GNGGA,101104.00,5051.96022,N,00005.26545,W,1,12,0.80,61.5,M,45.4,M,,*62
$GNGGA,101104.00,5051.96022,N,00005.26545,W,1,12,0.80,61.5,M,45.4,M,,*62
$GNGGA,101104.00,5051.96022,N,00005.26545,W,1,12,0.80,61.5,M,45.4,M,,*62
$GNGGA,101104.00,5051.96022,N,00005.26545,W,1,12,0.80,61.5,M,45.4,M,,*62
$GNGGA,101104.00,5051.96022,N,00005.26545,W,1,12,0.80,61.5,M,45.4,M,,*62
$GNGGA,101104.00,5051.96022,N,00005.26545,W,1,12,0.80,61.5,M,45.4,M,,*62
$GNGGA,101104.00,5051.96022,N,00005.26545,W,1,12,0.80,61.5,M,45.4,M,,*62
$GNGGA,101104.00,5051.96022,N,00005.26545,W,1,12,0.80,61.5,M,45.4,M,,*62
$GNGGA,101104.00,5051.96022,N,00005.26545,W,1,12,0.80,61.5,M,45.4,M,,*62
$GNGGA,101104.00,5051.96022,N,00005.26545,W,1,12,0.80,61.5,M,45.4,M,,*62
$GNGGA,101104.00,5051.96022,N,00005.26545,W,1,12,0.80,61.5,M,45.4,M,,*62
$GNGGA,101104.00,5051.96022,N,00005.26545,W,1,12,0.80,61.5,M,45.4,M,,*62
$GNGGA,101104.00,5051.96022,N,00005.26545,W,1,12,0.80,61.5,M,45.4,M,,*62
$GNGGA,101104.00,5051.96022,N,00005.26545,W,1,12,0.80,61.5,M,45.4,M,,*62
$GNGGA,101104.00,5051.96022,N,00005.26545,W,1,12,0.80,61.5,M,45.4,M,,*62
$GNGGA,101104.00,5051.96022,N,00005.26545,W,1,12,0.80,61.5,M,45.4,M,,*62
$GNGGA,101104.00,5051.96022,N,00005.26545,W,1,12,0.80,61.5,M,45.4,M,,*62
$GNGGA,101104.00,5051.96022,N,00005.26545,W,1,12,0.80,61.5,M,45.4,M,,*62
$GNGGA,101104.00,5051.96022,N,00005.26545,W,1,12,0.80,61.5,M,45.4,M,,*62
$GNGGA,101104.00,5051.96022,N,00005.26545,W,1,12,0.80,61.5,M,45.4,M,,*62
$GNGGA,101104.00,5051.96022,N,00005.26545,W,1,12,0.80,61.5,M,45.4,M,,*62
$GNGGA,101104.00,5051.96022,N,00005.26545,W,1,12,0.80,61.5,M,45.4,M,,*62
$GNGGA,101104.00,5051.96022,N,00005.26545,W,1,12,0.80,61.5,M,45.4,M,,*62
$GNGGA,101104.00,5051.96022,N,00005.26545,W,1,12,0.80,61.5,M,45.4,M,,*62
$GNGGA,101104.00,5051.96022,N,00005.26545,W,1,12,0.80,61.5,M,45.4,M,,*62
$GNGGA,101104.00,5051.96022,N,00005.26545,W,1,12,0.80,61.5,M,45.4,M,,*62
$GNGGA,101104.00,5051.96022,N,00005.26545,W,1,12,0.80,61.5,M,45.4,M,,*62
$GNGGA,101104.00,5051.96022,N,00005.26545,W,1,12,0.80,61.5,M,45.4,M,,*62
$GNGGA,101104.00,5051.96022,N,00005.26545,W,1,12,0.80,61.5,M,45.4,M,,*62
$GNGGA,101104.00,5051.96022,N,00005.26545,W,1,12,0.80,61.5,M,45.4,M,,*62
$GNGGA,101104.00,5051.96022,N,00005.26545,W,1,12,0.80,61.5,M,45.4,M,,*62
$GNGGA,101104.00,5051.96022,N,00005.26545,W,1,12,0.80,61.5,M,45.4,M,,*62
$GNGGA,101104.00,5051.96022,N,00005.26545,W,1,12,0.80,61.5,M,45.4,M,,*62
$GNGGA,101104.00,5051.96022,N,00005.26545,W,1,12,0.80,61.5,M,45.4,M,,*62
$GNGGA,101104.00,5051.96022,N,00005.26545,W,1,12,0.80,61.5,M,45.4,M,,*62
$GNGGA,101104.00,5051.96022,N,00005.26545,W,1,12,0.80,61.5,M,45.4,M,,*62
$GNGGA,101104.00,5051.96022,N,00005.26545,W,1,12,0.80,61.5,M,45.4,M,,*62
$GNGGA,101104.00,5051.96022,N,00005.26545,W,1,12,0.80,61.5,M,45.4,M,,*62
$GNGGA,101104.00,5051.96022,N,00005.26545,W,1,12,0.80,61.5,M,45.4,M,,*62
$GNGGA,101104.00,5051.96022,N,00005.26545,W,1,12,0.80,61.5,M,45.4,M,,*62
$GNGGA,101104.00,5051.96022,N,00005.26545,W,1,12,0.80,61.5,M,45.4,M,,*62
$GNGGA,101104.00,5051.96022,N,00005.26545,W,1,12,0.80,61.5,M,45.4,M,,*62
$GNGGA,101104.00,5051.96022,N,00005.26545,W,1,12,0.80,61.5,M,45.4,M,,*62
$GNGGA,101104.00,5051.96022,N,00005.26545,W,1,12,0.80,61.5,M,45.4,M,,*62
$GNGGA,101105.00,5051.96019,N,00005.26539,W,1,12,0.80,61.8,M,45.4,M,,*6D
$GNGGA,101105.00,5051.96019,N,00005.26539,W,1,12,0.80,61.8,M,45.4,M,,*6D
$GNGGA,101105.00,5051.96019,N,00005.26539,W,1,12,0.80,61.8,M,45.4,M,,*6D
$GNGGA,101105.00,5051.96019,N,00005.26539,W,1,12,0.80,61.8,M,45.4,M,,*6D
$GNGGA,101105.00,5051.96019,N,00005.26539,W,1,12,0.80,61.8,M,45.4,M,,*6D
$GNGGA,101105.00,5051.96019,N,00005.26539,W,1,12,0.80,61.8,M,45.4,M,,*6D
$GNGGA,101105.00,5051.96019,N,00005.26539,W,1,12,0.80,61.8,M,45.4,M,,*6D
$GNGGA,101105.00,5051.96019,N,00005.26539,W,1,12,0.80,61.8,M,45.4,M,,*6D
$GNGGA,101105.00,5051.96019,N,00005.26539,W,1,12,0.80,61.8,M,45.4,M,,*6D
$GNGGA,101105.00,5051.96019,N,00005.26539,W,1,12,0.80,61.8,M,45.4,M,,*6D
$GNGGA,101105.00,5051.96019,N,00005.26539,W,1,12,0.80,61.8,M,45.4,M,,*6D
$GNGGA,101105.00,5051.96019,N,00005.26539,W,1,12,0.80,61.8,M,45.4,M,,*6D
$GNGGA,101105.00,5051.96019,N,00005.26539,W,1,12,0.80,61.8,M,45.4,M,,*6D
$GNGGA,101105.00,5051.96019,N,00005.26539,W,1,12,0.80,61.8,M,45.4,M,,*6D
$GNGGA,101105.00,5051.96019,N,00005.26539,W,1,12,0.80,61.8,M,45.4,M,,*6D
$GNGGA,101105.00,5051.96019,N,00005.26539,W,1,12,0.80,61.8,M,45.4,M,,*6D
$GNGGA,101105.00,5051.96019,N,00005.26539,W,1,12,0.80,61.8,M,45.4,M,,*6D
$GNGGA,101105.00,5051.96019,N,00005.26539,W,1,12,0.80,61.8,M,45.4,M,,*6D
$GNGGA,101105.00,5051.96019,N,00005.26539,W,1,12,0.80,61.8,M,45.4,M,,*6D
$GNGGA,101105.00,5051.96019,N,00005.26539,W,1,12,0.80,61.8,M,45.4,M,,*6D
$GNGGA,101105.00,5051.96019,N,00005.26539,W,1,12,0.80,61.8,M,45.4,M,,*6D
$GNGGA,101105.00,5051.96019,N,00005.26539,W,1,12,0.80,61.8,M,45.4,M,,*6D
$GNGGA,101105.00,5051.96019,N,00005.26539,W,1,12,0.80,61.8,M,45.4,M,,*6D
$GNGGA,101105.00,5051.96019,N,00005.26539,W,1,12,0.80,61.8,M,45.4,M,,*6D
$GNGGA,101105.00,5051.96019,N,00005.26539,W,1,12,0.80,61.8,M,45.4,M,,*6D
$GNGGA,101105.00,5051.96019,N,00005.26539,W,1,12,0.80,61.8,M,45.4,M,,*6D
$GNGGA,101105.00,5051.96019,N,00005.26539,W,1,12,0.80,61.8,M,45.4,M,,*6D
$GNGGA,101105.00,5051.96019,N,00005.26539,W,1,12,0.80,61.8,M,45.4,M,,*6D
$GNGGA,101105.00,5051.96019,N,00005.26539,W,1,12,0.80,61.8,M,45.4,M,,*6D
$GNGGA,101105.00,5051.96019,N,00005.26539,W,1,12,0.80,61.8,M,45.4,M,,*6D
$GNGGA,101105.00,5051.96019,N,00005.26539,W,1,12,0.80,61.8,M,45.4,M,,*6D
$GNGGA,101105.00,5051.96019,N,00005.26539,W,1,12,0.80,61.8,M,45.4,M,,*6D
$GNGGA,101105.00,5051.96019,N,00005.26539,W,1,12,0.80,61.8,M,45.4,M,,*6D
$GNGGA,101105.00,5051.96019,N,00005.26539,W,1,12,0.80,61.8,M,45.4,M,,*6D
$GNGGA,101105.00,5051.96019,N,00005.26539,W,1,12,0.80,61.8,M,45.4,M,,*6D
$GNGGA,101105.00,5051.96019,N,00005.26539,W,1,12,0.80,61.8,M,45.4,M,,*6D
$GNGGA,101105.00,5051.96019,N,00005.26539,W,1,12,0.80,61.8,M,45.4,M,,*6D
$GNGGA,101105.00,5051.96019,N,00005.26539,W,1,12,0.80,61.8,M,45.4,M,,*6D
$GNGGA,101105.00,5051.96019,N,00005.26539,W,1,12,0.80,61.8,M,45.4,M,,*6D
$GNGGA,101105.00,5051.96019,N,00005.26539,W,1,12,0.80,61.8,M,45.4,M,,*6D
$GNGGA,101105.00,5051.96019,N,00005.26539,W,1,12,0.80,61.8,M,45.4,M,,*6D
$GNGGA,101105.00,5051.96019,N,00005.26539,W,1,12,0.80,61.8,M,45.4,M,,*6D
$GNGGA,101105.00,5051.96019,N,00005.26539,W,1,12,0.80,61.8,M,45.4,M,,*6D
$GNGGA,101105.00,5051.96019,N,00005.26539,W,1,12,0.80,61.8,M,45.4,M,,*6D
$GNGGA,101105.00,5051.96019,N,00005.26539,W,1,12,0.80,61.8,M,45.4,M,,*6D
$GNGGA,101105.00,5051.96019,N,00005.26539,W,1,12,0.80,61.8,M,45.4,M,,*6D
$GNGGA,101105.00,5051.96019,N,00005.26539,W,1,12,0.80,61.8,M,45.4,M,,*6D
$GNGGA,101105.00,5051.96019,N,00005.26539,W,1,12,0.80,61.8,M,45.4,M,,*6D
$GNGGA,101105.00,5051.96019,N,00005.26539,W,1,12,0.80,61.8,M,45.4,M,,*6D
$GNGGA,101105.00,5051.96019,N,00005.26539,W,1,12,0.80,61.8,M,45.4,M,,*6D
$GNGGA,101105.00,5051.96019,N,00005.26539,W,1,12,0.80,61.8,M,45.4,M,,*6D
$GNGGA,101105.00,5051.96019,N,00005.26539,W,1,12,0.80,61.8,M,45.4,M,,*6D
$GNGGA,101105.00,5051.96019,N,00005.26539,W,1,12,0.80,61.8,M,45.4,M,,*6D
$GNGGA,101105.00,5051.96019,N,00005.26539,W,1,12,0.80,61.8,M,45.4,M,,*6D
$GNGGA,101105.00,5051.96019,N,00005.26539,W,1,12,0.80,61.8,M,45.4,M,,*6D
$GNGGA,101105.00,5051.96019,N,00005.26539,W,1,12,0.80,61.8,M,45.4,M,,*6D
$GNGGA,101105.00,5051.96019,N,00005.26539,W,1,12,0.80,61.8,M,45.4,M,,*6D
$GNGGA,101105.00,5051.96019,N,00005.26539,W,1,12,0.80,61.8,M,45.4,M,,*6D
$GNGGA,101105.00,5051.96019,N,00005.26539,W,1,12,0.80,61.8,M,45.4,M,,*6D
$GNGGA,101105.00,5051.96019,N,00005.26539,W,1,12,0.80,61.8,M,45.4,M,,*6D
$GNGGA,101105.00,5051.96019,N,00005.26539,W,1,12,0.80,61.8,M,45.4,M,,*6D
$GNGGA,101105.00,5051.96019,N,00005.26539,W,1,12,0.80,61.8,M,45.4,M,,*6D
$GNGGA,101105.00,5051.96019,N,00005.26539,W,1,12,0.80,61.8,M,45.4,M,,*6D
$GNGGA,101105.00,5051.96019,N,00005.26539,W,1,12,0.80,61.8,M,45.4,M,,*6D
$GNGGA,101105.00,5051.96019,N,00005.26539,W,1,12,0.80,61.8,M,45.4,M,,*6D
$GNGGA,101105.00,5051.96019,N,00005.26539,W,1,12,0.80,61.8,M,45.4,M,,*6D
$GNGGA,101105.00,5051.96019,N,00005.26539,W,1,12,0.80,61.8,M,45.4,M,,*6D
$GNGGA,101105.00,5051.96019,N,00005.26539,W,1,12,0.80,61.8,M,45.4,M,,*6D
$GNGGA,101105.00,5051.96019,N,00005.26539,W,1,12,0.80,61.8,M,45.4,M,,*6D
$GNGGA,101105.00,5051.96019,N,00005.26539,W,1,12,0.80,61.8,M,45.4,M,,*6D
$GNGGA,101105.00,5051.96019,N,00005.26539,W,1,12,0.80,61.8,M,45.4,M,,*6D
$GNGGA,101105.00,5051.96019,N,00005.26539,W,1,12,0.80,61.8,M,45.4,M,,*6D
$GNGGA,101106.00,5051.96012,N,00005.26532,W,1,12,0.80,62.2,M,45.4,M,,*67
$GNGGA,101106.00,5051.96012,N,00005.26532,W,1,12,0.80,62.2,M,45.4,M,,*67
$GNGGA,101106.00,5051.96012,N,00005.26532,W,1,12,0.80,62.2,M,45.4,M,,*67
$GNGGA,101106.00,5051.96012,N,00005.26532,W,1,12,0.80,62.2,M,45.4,M,,*67
$GNGGA,101106.00,5051.96012,N,00005.26532,W,1,12,0.80,62.2,M,45.4,M,,*67
$GNGGA,101106.00,5051.96012,N,00005.26532,W,1,12,0.80,62.2,M,45.4,M,,*67
$GNGGA,101106.00,5051.96012,N,00005.26532,W,1,12,0.80,62.2,M,45.4,M,,*67
$GNGGA,101106.00,5051.96012,N,00005.26532,W,1,12,0.80,62.2,M,45.4,M,,*67
$GNGGA,101106.00,5051.96012,N,00005.26532,W,1,12,0.80,62.2,M,45.4,M,,*67
$GNGGA,101106.00,5051.96012,N,00005.26532,W,1,12,0.80,62.2,M,45.4,M,,*67
$GNGGA,101106.00,5051.96012,N,00005.26532,W,1,12,0.80,62.2,M,45.4,M,,*67
$GNGGA,101106.00,5051.96012,N,00005.26532,W,1,12,0.80,62.2,M,45.4,M,,*67
$GNGGA,101106.00,5051.96012,N,00005.26532,W,1,12,0.80,62.2,M,45.4,M,,*67
$GNGGA,101106.00,5051.96012,N,00005.26532,W,1,12,0.80,62.2,M,45.4,M,,*67
$GNGGA,101106.00,5051.96012,N,00005.26532,W,1,12,0.80,62.2,M,45.4,M,,*67
$GNGGA,101106.00,5051.96012,N,00005.26532,W,1,12,0.80,62.2,M,45.4,M,,*67
$GNGGA,101106.00,5051.96012,N,00005.26532,W,1,12,0.80,62.2,M,45.4,M,,*67
$GNGGA,101106.00,5051.96012,N,00005.26532,W,1,12,0.80,62.2,M,45.4,M,,*67
$GNGGA,101106.00,5051.96012,N,00005.26532,W,1,12,0.80,62.2,M,45.4,M,,*67
$GNGGA,101106.00,5051.96012,N,00005.26532,W,1,12,0.80,62.2,M,45.4,M,,*67
$GNGGA,101106.00,5051.96012,N,00005.26532,W,1,12,0.80,62.2,M,45.4,M,,*67
$GNGGA,101106.00,5051.96012,N,00005.26532,W,1,12,0.80,62.2,M,45.4,M,,*67
$GNGGA,101106.00,5051.96012,N,00005.26532,W,1,12,0.80,62.2,M,45.4,M,,*67
$GNGGA,101106.00,5051.96012,N,00005.26532,W,1,12,0.80,62.2,M,45.4,M,,*67
$GNGGA,101106.00,5051.96012,N,00005.26532,W,1,12,0.80,62.2,M,45.4,M,,*67
$GNGGA,101106.00,5051.96012,N,00005.26532,W,1,12,0.80,62.2,M,45.4,M,,*67
$GNGGA,101106.00,5051.96012,N,00005.26532,W,1,12,0.80,62.2,M,45.4,M,,*67
$GNGGA,101106.00,5051.96012,N,00005.26532,W,1,12,0.80,62.2,M,45.4,M,,*67
$GNGGA,101106.00,5051.96012,N,00005.26532,W,1,12,0.80,62.2,M,45.4,M,,*67
$GNGGA,101106.00,5051.96012,N,00005.26532,W,1,12,0.80,62.2,M,45.4,M,,*67
$GNGGA,101106.00,5051.96012,N,00005.26532,W,1,12,0.80,62.2,M,45.4,M,,*67
$GNGGA,101106.00,5051.96012,N,00005.26532,W,1,12,0.80,62.2,M,45.4,M,,*67
$GNGGA,101106.00,5051.96012,N,00005.26532,W,1,12,0.80,62.2,M,45.4,M,,*67
$GNGGA,101106.00,5051.96012,N,00005.26532,W,1,12,0.80,62.2,M,45.4,M,,*67
$GNGGA,101106.00,5051.96012,N,00005.26532,W,1,12,0.80,62.2,M,45.4,M,,*67
$GNGGA,101106.00,5051.96012,N,00005.26532,W,1,12,0.80,62.2,M,45.4,M,,*67
$GNGGA,101106.00,5051.96012,N,00005.26532,W,1,12,0.80,62.2,M,45.4,M,,*67
$GNGGA,101106.00,5051.96012,N,00005.26532,W,1,12,0.80,62.2,M,45.4,M,,*67
$GNGGA,101106.00,5051.96012,N,00005.26532,W,1,12,0.80,62.2,M,45.4,M,,*67
$GNGGA,101106.00,5051.96012,N,00005.26532,W,1,12,0.80,62.2,M,45.4,M,,*67
$GNGGA,101106.00,5051.96012,N,00005.26532,W,1,12,0.80,62.2,M,45.4,M,,*67
$GNGGA,101106.00,5051.96012,N,00005.26532,W,1,12,0.80,62.2,M,45.4,M,,*67
$GNGGA,101106.00,5051.96012,N,00005.26532,W,1,12,0.80,62.2,M,45.4,M,,*67
$GNGGA,101106.00,5051.96012,N,00005.26532,W,1,12,0.80,62.2,M,45.4,M,,*67
$GNGGA,101106.00,5051.96012,N,00005.26532,W,1,12,0.80,62.2,M,45.4,M,,*67
$GNGGA,101106.00,5051.96012,N,00005.26532,W,1,12,0.80,62.2,M,45.4,M,,*67
$GNGGA,101106.00,5051.96012,N,00005.26532,W,1,12,0.80,62.2,M,45.4,M,,*67
$GNGGA,101106.00,5051.96012,N,00005.26532,W,1,12,0.80,62.2,M,45.4,M,,*67
$GNGGA,101106.00,5051.96012,N,00005.26532,W,1,12,0.80,62.2,M,45.4,M,,*67
$GNGGA,101106.00,5051.96012,N,00005.26532,W,1,12,0.80,62.2,M,45.4,M,,*67
$GNGGA,101106.00,5051.96012,N,00005.26532,W,1,12,0.80,62.2,M,45.4,M,,*67
$GNGGA,101106.00,5051.96012,N,00005.26532,W,1,12,0.80,62.2,M,45.4,M,,*67
$GNGGA,101106.00,5051.96012,N,00005.26532,W,1,12,0.80,62.2,M,45.4,M,,*67
$GNGGA,101106.00,5051.96012,N,00005.26532,W,1,12,0.80,62.2,M,45.4,M,,*67
$GNGGA,101106.00,5051.96012,N,00005.26532,W,1,12,0.80,62.2,M,45.4,M,,*67
$GNGGA,101106.00,5051.96012,N,00005.26532,W,1,12,0.80,62.2,M,45.4,M,,*67
$GNGGA,101106.00,5051.96012,N,00005.26532,W,1,12,0.80,62.2,M,45.4,M,,*67
$GNGGA,101106.00,5051.96012,N,00005.26532,W,1,12,0.80,62.2,M,45.4,M,,*67
$GNGGA,101106.00,5051.96012,N,00005.26532,W,1,12,0.80,62.2,M,45.4,M,,*67
$GNGGA,101106.00,5051.96012,N,00005.26532,W,1,12,0.80,62.2,M,45.4,M,,*67
$GNGGA,101106.00,5051.96012,N,00005.26532,W,1,12,0.80,62.2,M,45.4,M,,*67
$GNGGA,101106.00,5051.96012,N,00005.26532,W,1,12,0.80,62.2,M,45.4,M,,*67
$GNGGA,101106.00,5051.96012,N,00005.26532,W,1,12,0.80,62.2,M,45.4,M,,*67
$GNGGA,101106.00,5051.96012,N,00005.26532,W,1,12,0.80,62.2,M,45.4,M,,*67
$GNGGA,101106.00,5051.96012,N,00005.26532,W,1,12,0.80,62.2,M,45.4,M,,*67
$GNGGA,101106.00,5051.96012,N,00005.26532,W,1,12,0.80,62.2,M,45.4,M,,*67
$GNGGA,101106.00,5051.96012,N,00005.26532,W,1,12,0.80,62.2,M,45.4,M,,*67
$GNGGA,101106.00,5051.96012,N,00005.26532,W,1,12,0.80,62.2,M,45.4,M,,*67
$GNGGA,101106.00,5051.96012,N,00005.26532,W,1,12,0.80,62.2,M,45.4,M,,*67
$GNGGA,101106.00,5051.96012,N,00005.26532,W,1,12,0.80,62.2,M,45.4,M,,*67
$GNGGA,101106.00,5051.96012,N,00005.26532,W,1,12,0.80,62.2,M,45.4,M,,*67
$GNGGA,101106.00,5051.96012,N,00005.26532,W,1,12,0.80,62.2,M,45.4,M,,*67
$GNGGA,101107.00,5051.95986,N,00005.26527,W,1,12,0.80,62.3,M,45.4,M,,*64
$GNGGA,101107.00,5051.95986,N,00005.26527,W,1,12,0.80,62.3,M,45.4,M,,*64
$GNGGA,101107.00,5051.95986,N,00005.26527,W,1,12,0.80,62.3,M,45.4,M,,*64
$GNGGA,101107.00,5051.95986,N,00005.26527,W,1,12,0.80,62.3,M,45.4,M,,*64
$GNGGA,101107.00,5051.95986,N,00005.26527,W,1,12,0.80,62.3,M,45.4,M,,*64
$GNGGA,101107.00,5051.95986,N,00005.26527,W,1,12,0.80,62.3,M,45.4,M,,*64
$GNGGA,101107.00,5051.95986,N,00005.26527,W,1,12,0.80,62.3,M,45.4,M,,*64
$GNGGA,101107.00,5051.95986,N,00005.26527,W,1,12,0.80,62.3,M,45.4,M,,*64
$GNGGA,101107.00,5051.95986,N,00005.26527,W,1,12,0.80,62.3,M,45.4,M,,*64
$GNGGA,101107.00,5051.95986,N,00005.26527,W,1,12,0.80,62.3,M,45.4,M,,*64
$GNGGA,101107.00,5051.95986,N,00005.26527,W,1,12,0.80,62.3,M,45.4,M,,*64
$GNGGA,101107.00,5051.95986,N,00005.26527,W,1,12,0.80,62.3,M,45.4,M,,*64
$GNGGA,101107.00,5051.95986,N,00005.26527,W,1,12,0.80,62.3,M,45.4,M,,*64
$GNGGA,101107.00,5051.95986,N,00005.26527,W,1,12,0.80,62.3,M,45.4,M,,*64
$GNGGA,101107.00,5051.95986,N,00005.26527,W,1,12,0.80,62.3,M,45.4,M,,*64
$GNGGA,101107.00,5051.95986,N,00005.26527,W,1,12,0.80,62.3,M,45.4,M,,*64
$GNGGA,101107.00,5051.95986,N,00005.26527,W,1,12,0.80,62.3,M,45.4,M,,*64
$GNGGA,101107.00,5051.95986,N,00005.26527,W,1,12,0.80,62.3,M,45.4,M,,*64
$GNGGA,101107.00,5051.95986,N,00005.26527,W,1,12,0.80,62.3,M,45.4,M,,*64
$GNGGA,101107.00,5051.95986,N,00005.26527,W,1,12,0.80,62.3,M,45.4,M,,*64
$GNGGA,101107.00,5051.95986,N,00005.26527,W,1,12,0.80,62.3,M,45.4,M,,*64
$GNGGA,101107.00,5051.95986,N,00005.26527,W,1,12,0.80,62.3,M,45.4,M,,*64
$GNGGA,101107.00,5051.95986,N,00005.26527,W,1,12,0.80,62.3,M,45.4,M,,*64
$GNGGA,101107.00,5051.95986,N,00005.26527,W,1,12,0.80,62.3,M,45.4,M,,*64
$GNGGA,101107.00,5051.95986,N,00005.26527,W,1,12,0.80,62.3,M,45.4,M,,*64
$GNGGA,101107.00,5051.95986,N,00005.26527,W,1,12,0.80,62.3,M,45.4,M,,*64
$GNGGA,101107.00,5051.95986,N,00005.26527,W,1,12,0.80,62.3,M,45.4,M,,*64
$GNGGA,101107.00,5051.95986,N,00005.26527,W,1,12,0.80,62.3,M,45.4,M,,*64
$GNGGA,101107.00,5051.95986,N,00005.26527,W,1,12,0.80,62.3,M,45.4,M,,*64
$GNGGA,101107.00,5051.95986,N,00005.26527,W,1,12,0.80,62.3,M,45.4,M,,*64
$GNGGA,101107.00,5051.95986,N,00005.26527,W,1,12,0.80,62.3,M,45.4,M,,*64
$GNGGA,101107.00,5051.95986,N,00005.26527,W,1,12,0.80,62.3,M,45.4,M,,*64
$GNGGA,101107.00,5051.95986,N,00005.26527,W,1,12,0.80,62.3,M,45.4,M,,*64
$GNGGA,101107.00,5051.95986,N,00005.26527,W,1,12,0.80,62.3,M,45.4,M,,*64
$GNGGA,101107.00,5051.95986,N,00005.26527,W,1,12,0.80,62.3,M,45.4,M,,*64
$GNGGA,101107.00,5051.95986,N,00005.26527,W,1,12,0.80,62.3,M,45.4,M,,*64
$GNGGA,101107.00,5051.95986,N,00005.26527,W,1,12,0.80,62.3,M,45.4,M,,*64
$GNGGA,101107.00,5051.95986,N,00005.26527,W,1,12,0.80,62.3,M,45.4,M,,*64
$GNGGA,101107.00,5051.95986,N,00005.26527,W,1,12,0.80,62.3,M,45.4,M,,*64
$GNGGA,101107.00,5051.95986,N,00005.26527,W,1,12,0.80,62.3,M,45.4,M,,*64
$GNGGA,101107.00,5051.95986,N,00005.26527,W,1,12,0.80,62.3,M,45.4,M,,*64
$GNGGA,101107.00,5051.95986,N,00005.26527,W,1,12,0.80,62.3,M,45.4,M,,*64
$GNGGA,101107.00,5051.95986,N,00005.26527,W,1,12,0.80,62.3,M,45.4,M,,*64
$GNGGA,101107.00,5051.95986,N,00005.26527,W,1,12,0.80,62.3,M,45.4,M,,*64
$GNGGA,101107.00,5051.95986,N,00005.26527,W,1,12,0.80,62.3,M,45.4,M,,*64
$GNGGA,101107.00,5051.95986,N,00005.26527,W,1,12,0.80,62.3,M,45.4,M,,*64
$GNGGA,101107.00,5051.95986,N,00005.26527,W,1,12,0.80,62.3,M,45.4,M,,*64
$GNGGA,101107.00,5051.95986,N,00005.26527,W,1,12,0.80,62.3,M,45.4,M,,*64
$GNGGA,101107.00,5051.95986,N,00005.26527,W,1,12,0.80,62.3,M,45.4,M,,*64
$GNGGA,101107.00,5051.95986,N,00005.26527,W,1,12,0.80,62.3,M,45.4,M,,*64
$GNGGA,101107.00,5051.95986,N,00005.26527,W,1,12,0.80,62.3,M,45.4,M,,*64
$GNGGA,101107.00,5051.95986,N,00005.26527,W,1,12,0.80,62.3,M,45.4,M,,*64
$GNGGA,101107.00,5051.95986,N,00005.26527,W,1,12,0.80,62.3,M,45.4,M,,*64
$GNGGA,101107.00,5051.95986,N,00005.26527,W,1,12,0.80,62.3,M,45.4,M,,*64
$GNGGA,101107.00,5051.95986,N,00005.26527,W,1,12,0.80,62.3,M,45.4,M,,*64
$GNGGA,101107.00,5051.95986,N,00005.26527,W,1,12,0.80,62.3,M,45.4,M,,*64
$GNGGA,101107.00,5051.95986,N,00005.26527,W,1,12,0.80,62.3,M,45.4,M,,*64
$GNGGA,101107.00,5051.95986,N,00005.26527,W,1,12,0.80,62.3,M,45.4,M,,*64
$GNGGA,101107.00,5051.95986,N,00005.26527,W,1,12,0.80,62.3,M,45.4,M,,*64
$GNGGA,101107.00,5051.95986,N,00005.26527,W,1,12,0.80,62.3,M,45.4,M,,*64
$GNGGA,101107.00,5051.95986,N,00005.26527,W,1,12,0.80,62.3,M,45.4,M,,*64
$GNGGA,101107.00,5051.95986,N,00005.26527,W,1,12,0.80,62.3,M,45.4,M,,*64
$GNGGA,101107.00,5051.95986,N,00005.26527,W,1,12,0.80,62.3,M,45.4,M,,*64
$GNGGA,101107.00,5051.95986,N,00005.26527,W,1,12,0.80,62.3,M,45.4,M,,*64
$GNGGA,101107.00,5051.95986,N,00005.26527,W,1,12,0.80,62.3,M,45.4,M,,*64
$GNGGA,101107.00,5051.95986,N,00005.26527,W,1,12,0.80,62.3,M,45.4,M,,*64
$GNGGA,101107.00,5051.95986,N,00005.26527,W,1,12,0.80,62.3,M,45.4,M,,*64
$GNGGA,101107.00,5051.95986,N,00005.26527,W,1,12,0.80,62.3,M,45.4,M,,*64
$GNGGA,101107.00,5051.95986,N,00005.26527,W,1,12,0.80,62.3,M,45.4,M,,*64
$GNGGA,101107.00,5051.95986,N,00005.26527,W,1,12,0.80,62.3,M,45.4,M,,*64
$GNGGA,101107.00,5051.95986,N,00005.26527,W,1,12,0.80,62.3,M,45.4,M,,*64
$GNGGA,101107.00,5051.95986,N,00005.26527,W,1,12,0.80,62.3,M,45.4,M,,*64
$GNGGA,101108.00,5051.95971,N,00005.26524,W,1,12,0.80,62.6,M,45.4,M,,*65
$GNGGA,101108.00,5051.95971,N,00005.26524,W,1,12,0.80,62.6,M,45.4,M,,*65
$GNGGA,101108.00,5051.95971,N,00005.26524,W,1,12,0.80,62.6,M,45.4,M,,*65
$GNGGA,101108.00,5051.95971,N,00005.26524,W,1,12,0.80,62.6,M,45.4,M,,*65
$GNGGA,101108.00,5051.95971,N,00005.26524,W,1,12,0.80,62.6,M,45.4,M,,*65
$GNGGA,101108.00,5051.95971,N,00005.26524,W,1,12,0.80,62.6,M,45.4,M,,*65
$GNGGA,101108.00,5051.95971,N,00005.26524,W,1,12,0.80,62.6,M,45.4,M,,*65
$GNGGA,101108.00,5051.95971,N,00005.26524,W,1,12,0.80,62.6,M,45.4,M,,*65
$GNGGA,101108.00,5051.95971,N,00005.26524,W,1,12,0.80,62.6,M,45.4,M,,*65
$GNGGA,101108.00,5051.95971,N,00005.26524,W,1,12,0.80,62.6,M,45.4,M,,*65
$GNGGA,101108.00,5051.95971,N,00005.26524,W,1,12,0.80,62.6,M,45.4,M,,*65
$GNGGA,101108.00,5051.95971,N,00005.26524,W,1,12,0.80,62.6,M,45.4,M,,*65
$GNGGA,101108.00,5051.95971,N,00005.26524,W,1,12,0.80,62.6,M,45.4,M,,*65
$GNGGA,101108.00,5051.95971,N,00005.26524,W,1,12,0.80,62.6,M,45.4,M,,*65
$GNGGA,101108.00,5051.95971,N,00005.26524,W,1,12,0.80,62.6,M,45.4,M,,*65
$GNGGA,101108.00,5051.95971,N,00005.26524,W,1,12,0.80,62.6,M,45.4,M,,*65
$GNGGA,101108.00,5051.95971,N,00005.26524,W,1,12,0.80,62.6,M,45.4,M,,*65
$GNGGA,101108.00,5051.95971,N,00005.26524,W,1,12,0.80,62.6,M,45.4,M,,*65
$GNGGA,101108.00,5051.95971,N,00005.26524,W,1,12,0.80,62.6,M,45.4,M,,*65
$GNGGA,101108.00,5051.95971,N,00005.26524,W,1,12,0.80,62.6,M,45.4,M,,*65
$GNGGA,101108.00,5051.95971,N,00005.26524,W,1,12,0.80,62.6,M,45.4,M,,*65
$GNGGA,101108.00,5051.95971,N,00005.26524,W,1,12,0.80,62.6,M,45.4,M,,*65
$GNGGA,101108.00,5051.95971,N,00005.26524,W,1,12,0.80,62.6,M,45.4,M,,*65
$GNGGA,101108.00,5051.95971,N,00005.26524,W,1,12,0.80,62.6,M,45.4,M,,*65
$GNGGA,101108.00,5051.95971,N,00005.26524,W,1,12,0.80,62.6,M,45.4,M,,*65
$GNGGA,101108.00,5051.95971,N,00005.26524,W,1,12,0.80,62.6,M,45.4,M,,*65
$GNGGA,101108.00,5051.95971,N,00005.26524,W,1,12,0.80,62.6,M,45.4,M,,*65
$GNGGA,101108.00,5051.95971,N,00005.26524,W,1,12,0.80,62.6,M,45.4,M,,*65
$GNGGA,101108.00,5051.95971,N,00005.26524,W,1,12,0.80,62.6,M,45.4,M,,*65
$GNGGA,101108.00,5051.95971,N,00005.26524,W,1,12,0.80,62.6,M,45.4,M,,*65
$GNGGA,101108.00,5051.95971,N,00005.26524,W,1,12,0.80,62.6,M,45.4,M,,*65
$GNGGA,101108.00,5051.95971,N,00005.26524,W,1,12,0.80,62.6,M,45.4,M,,*65
$GNGGA,101108.00,5051.95971,N,00005.26524,W,1,12,0.80,62.6,M,45.4,M,,*65
$GNGGA,101108.00,5051.95971,N,00005.26524,W,1,12,0.80,62.6,M,45.4,M,,*65
$GNGGA,101108.00,5051.95971,N,00005.26524,W,1,12,0.80,62.6,M,45.4,M,,*65
$GNGGA,101108.00,5051.95971,N,00005.26524,W,1,12,0.80,62.6,M,45.4,M,,*65
$GNGGA,101108.00,5051.95971,N,00005.26524,W,1,12,0.80,62.6,M,45.4,M,,*65
$GNGGA,101108.00,5051.95971,N,00005.26524,W,1,12,0.80,62.6,M,45.4,M,,*65
$GNGGA,101108.00,5051.95971,N,00005.26524,W,1,12,0.80,62.6,M,45.4,M,,*65
$GNGGA,101108.00,5051.95971,N,00005.26524,W,1,12,0.80,62.6,M,45.4,M,,*65
$GNGGA,101108.00,5051.95971,N,00005.26524,W,1,12,0.80,62.6,M,45.4,M,,*65
$GNGGA,101108.00,5051.95971,N,00005.26524,W,1,12,0.80,62.6,M,45.4,M,,*65
$GNGGA,101108.00,5051.95971,N,00005.26524,W,1,12,0.80,62.6,M,45.4,M,,*65
$GNGGA,101108.00,5051.95971,N,00005.26524,W,1,12,0.80,62.6,M,45.4,M,,*65
$GNGGA,101108.00,5051.95971,N,00005.26524,W,1,12,0.80,62.6,M,45.4,M,,*65
$GNGGA,101108.00,5051.95971,N,00005.26524,W,1,12,0.80,62.6,M,45.4,M,,*65
$GNGGA,101108.00,5051.95971,N,00005.26524,W,1,12,0.80,62.6,M,45.4,M,,*65
$GNGGA,101108.00,5051.95971,N,00005.26524,W,1,12,0.80,62.6,M,45.4,M,,*65
$GNGGA,101108.00,5051.95971,N,00005.26524,W,1,12,0.80,62.6,M,45.4,M,,*65
$GNGGA,101108.00,5051.95971,N,00005.26524,W,1,12,0.80,62.6,M,45.4,M,,*65
$GNGGA,101108.00,5051.95971,N,00005.26524,W,1,12,0.80,62.6,M,45.4,M,,*65
$GNGGA,101108.00,5051.95971,N,00005.26524,W,1,12,0.80,62.6,M,45.4,M,,*65
$GNGGA,101108.00,5051.95971,N,00005.26524,W,1,12,0.80,62.6,M,45.4,M,,*65
$GNGGA,101108.00,5051.95971,N,00005.26524,W,1,12,0.80,62.6,M,45.4,M,,*65
$GNGGA,101108.00,5051.95971,N,00005.26524,W,1,12,0.80,62.6,M,45.4,M,,*65
$GNGGA,101108.00,5051.95971,N,00005.26524,W,1,12,0.80,62.6,M,45.4,M,,*65
$GNGGA,101108.00,5051.95971,N,00005.26524,W,1,12,0.80,62.6,M,45.4,M,,*65
$GNGGA,101108.00,5051.95971,N,00005.26524,W,1,12,0.80,62.6,M,45.4,M,,*65
$GNGGA,101108.00,5051.95971,N,00005.26524,W,1,12,0.80,62.6,M,45.4,M,,*65
$GNGGA,101108.00,5051.95971,N,00005.26524,W,1,12,0.80,62.6,M,45.4,M,,*65
$GNGGA,101108.00,5051.95971,N,00005.26524,W,1,12,0.80,62.6,M,45.4,M,,*65
$GNGGA,101108.00,5051.95971,N,00005.26524,W,1,12,0.80,62.6,M,45.4,M,,*65
$GNGGA,101108.00,5051.95971,N,00005.26524,W,1,12,0.80,62.6,M,45.4,M,,*65
$GNGGA,101108.00,5051.95971,N,00005.26524,W,1,12,0.80,62.6,M,45.4,M,,*65
$GNGGA,101108.00,5051.95971,N,00005.26524,W,1,12,0.80,62.6,M,45.4,M,,*65
$GNGGA,101108.00,5051.95971,N,00005.26524,W,1,12,0.80,62.6,M,45.4,M,,*65
$GNGGA,101108.00,5051.95971,N,00005.26524,W,1,12,0.80,62.6,M,45.4,M,,*65
$GNGGA,101108.00,5051.95971,N,00005.26524,W,1,12,0.80,62.6,M,45.4,M,,*65
$GNGGA,101108.00,5051.95971,N,00005.26524,W,1,12,0.80,62.6,M,45.4,M,,*65
$GNGGA,101108.00,5051.95971,N,00005.26524,W,1,12,0.80,62.6,M,45.4,M,,*65
$GNGGA,101108.00,5051.95971,N,00005.26524,W,1,12,0.80,62.6,M,45.4,M,,*65
$GNGGA,101108.00,5051.95971,N,00005.26524,W,1,12,0.80,62.6,M,45.4,M,,*65
$GNGGA,101109.00,5051.95945,N,00005.26507,W,1,12,0.80,63.0,M,45.4,M,,*65
$GNGGA,101109.00,5051.95945,N,00005.26507,W,1,12,0.80,63.0,M,45.4,M,,*65
$GNGGA,101109.00,5051.95945,N,00005.26507,W,1,12,0.80,63.0,M,45.4,M,,*65
$GNGGA,101109.00,5051.95945,N,00005.26507,W,1,12,0.80,63.0,M,45.4,M,,*65
$GNGGA,101109.00,5051.95945,N,00005.26507,W,1,12,0.80,63.0,M,45.4,M,,*65
$GNGGA,101109.00,5051.95945,N,00005.26507,W,1,12,0.80,63.0,M,45.4,M,,*65
$GNGGA,101109.00,5051.95945,N,00005.26507,W,1,12,0.80,63.0,M,45.4,M,,*65
$GNGGA,101109.00,5051.95945,N,00005.26507,W,1,12,0.80,63.0,M,45.4,M,,*65
$GNGGA,101109.00,5051.95945,N,00005.26507,W,1,12,0.80,63.0,M,45.4,M,,*65
$GNGGA,101109.00,5051.95945,N,00005.26507,W,1,12,0.80,63.0,M,45.4,M,,*65
$GNGGA,101109.00,5051.95945,N,00005.26507,W,1,12,0.80,63.0,M,45.4,M,,*65
$GNGGA,101109.00,5051.95945,N,00005.26507,W,1,12,0.80,63.0,M,45.4,M,,*65
$GNGGA,101109.00,5051.95945,N,00005.26507,W,1,12,0.80,63.0,M,45.4,M,,*65
$GNGGA,101109.00,5051.95945,N,00005.26507,W,1,12,0.80,63.0,M,45.4,M,,*65
$GNGGA,101109.00,5051.95945,N,00005.26507,W,1,12,0.80,63.0,M,45.4,M,,*65
$GNGGA,101109.00,5051.95945,N,00005.26507,W,1,12,0.80,63.0,M,45.4,M,,*65
$GNGGA,101109.00,5051.95945,N,00005.26507,W,1,12,0.80,63.0,M,45.4,M,,*65
$GNGGA,101109.00,5051.95945,N,00005.26507,W,1,12,0.80,63.0,M,45.4,M,,*65
$GNGGA,101109.00,5051.95945,N,00005.26507,W,1,12,0.80,63.0,M,45.4,M,,*65
$GNGGA,101109.00,5051.95945,N,00005.26507,W,1,12,0.80,63.0,M,45.4,M,,*65
$GNGGA,101109.00,5051.95945,N,00005.26507,W,1,12,0.80,63.0,M,45.4,M,,*65
$GNGGA,101109.00,5051.95945,N,00005.26507,W,1,12,0.80,63.0,M,45.4,M,,*65
$GNGGA,101109.00,5051.95945,N,00005.26507,W,1,12,0.80,63.0,M,45.4,M,,*65
$GNGGA,101109.00,5051.95945,N,00005.26507,W,1,12,0.80,63.0,M,45.4,M,,*65
$GNGGA,101109.00,5051.95945,N,00005.26507,W,1,12,0.80,63.0,M,45.4,M,,*65
$GNGGA,101109.00,5051.95945,N,00005.26507,W,1,12,0.80,63.0,M,45.4,M,,*65
$GNGGA,101109.00,5051.95945,N,00005.26507,W,1,12,0.80,63.0,M,45.4,M,,*65
$GNGGA,101109.00,5051.95945,N,00005.26507,W,1,12,0.80,63.0,M,45.4,M,,*65
$GNGGA,101109.00,5051.95945,N,00005.26507,W,1,12,0.80,63.0,M,45.4,M,,*65
$GNGGA,101109.00,5051.95945,N,00005.26507,W,1,12,0.80,63.0,M,45.4,M,,*65
$GNGGA,101109.00,5051.95945,N,00005.26507,W,1,12,0.80,63.0,M,45.4,M,,*65
$GNGGA,101109.00,5051.95945,N,00005.26507,W,1,12,0.80,63.0,M,45.4,M,,*65
$GNGGA,101109.00,5051.95945,N,00005.26507,W,1,12,0.80,63.0,M,45.4,M,,*65
$GNGGA,101109.00,5051.95945,N,00005.26507,W,1,12,0.80,63.0,M,45.4,M,,*65
$GNGGA,101109.00,5051.95945,N,00005.26507,W,1,12,0.80,63.0,M,45.4,M,,*65
$GNGGA,101109.00,5051.95945,N,00005.26507,W,1,12,0.80,63.0,M,45.4,M,,*65
$GNGGA,101109.00,5051.95945,N,00005.26507,W,1,12,0.80,63.0,M,45.4,M,,*65
$GNGGA,101109.00,5051.95945,N,00005.26507,W,1,12,0.80,63.0,M,45.4,M,,*65
$GNGGA,101109.00,5051.95945,N,00005.26507,W,1,12,0.80,63.0,M,45.4,M,,*65
$GNGGA,101109.00,5051.95945,N,00005.26507,W,1,12,0.80,63.0,M,45.4,M,,*65
$GNGGA,101109.00,5051.95945,N,00005.26507,W,1,12,0.80,63.0,M,45.4,M,,*65
$GNGGA,101109.00,5051.95945,N,00005.26507,W,1,12,0.80,63.0,M,45.4,M,,*65
$GNGGA,101109.00,5051.95945,N,00005.26507,W,1,12,0.80,63.0,M,45.4,M,,*65
$GNGGA,101109.00,5051.95945,N,00005.26507,W,1,12,0.80,63.0,M,45.4,M,,*65
$GNGGA,101109.00,5051.95945,N,00005.26507,W,1,12,0.80,63.0,M,45.4,M,,*65
$GNGGA,101109.00,5051.95945,N,00005.26507,W,1,12,0.80,63.0,M,45.4,M,,*65
$GNGGA,101109.00,5051.95945,N,00005.26507,W,1,12,0.80,63.0,M,45.4,M,,*65
$GNGGA,101109.00,5051.95945,N,00005.26507,W,1,12,0.80,63.0,M,45.4,M,,*65
$GNGGA,101109.00,5051.95945,N,00005.26507,W,1,12,0.80,63.0,M,45.4,M,,*65
$GNGGA,101109.00,5051.95945,N,00005.26507,W,1,12,0.80,63.0,M,45.4,M,,*65
$GNGGA,101109.00,5051.95945,N,00005.26507,W,1,12,0.80,63.0,M,45.4,M,,*65
$GNGGA,101109.00,5051.95945,N,00005.26507,W,1,12,0.80,63.0,M,45.4,M,,*65
$GNGGA,101109.00,5051.95945,N,00005.26507,W,1,12,0.80,63.0,M,45.4,M,,*65
$GNGGA,101109.00,5051.95945,N,00005.26507,W,1,12,0.80,63.0,M,45.4,M,,*65
$GNGGA,101109.00,5051.95945,N,00005.26507,W,1,12,0.80,63.0,M,45.4,M,,*65
$GNGGA,101109.00,5051.95945,N,00005.26507,W,1,12,0.80,63.0,M,45.4,M,,*65
$GNGGA,101109.00,5051.95945,N,00005.26507,W,1,12,0.80,63.0,M,45.4,M,,*65
$GNGGA,101109.00,5051.95945,N,00005.26507,W,1,12,0.80,63.0,M,45.4,M,,*65
$GNGGA,101109.00,5051.95945,N,00005.26507,W,1,12,0.80,63.0,M,45.4,M,,*65
$GNGGA,101109.00,5051.95945,N,00005.26507,W,1,12,0.80,63.0,M,45.4,M,,*65
$GNGGA,101109.00,5051.95945,N,00005.26507,W,1,12,0.80,63.0,M,45.4,M,,*65
$GNGGA,101109.00,5051.95945,N,00005.26507,W,1,12,0.80,63.0,M,45.4,M,,*65
$GNGGA,101109.00,5051.95945,N,00005.26507,W,1,12,0.80,63.0,M,45.4,M,,*65
$GNGGA,101109.00,5051.95945,N,00005.26507,W,1,12,0.80,63.0,M,45.4,M,,*65
$GNGGA,101109.00,5051.95945,N,00005.26507,W,1,12,0.80,63.0,M,45.4,M,,*65
$GNGGA,101109.00,5051.95945,N,00005.26507,W,1,12,0.80,63.0,M,45.4,M,,*65
$GNGGA,101109.00,5051.95945,N,00005.26507,W,1,12,0.80,63.0,M,45.4,M,,*65
$GNGGA,101109.00,5051.95945,N,00005.26507,W,1,12,0.80,63.0,M,45.4,M,,*65
$GNGGA,101109.00,5051.95945,N,00005.26507,W,1,12,0.80,63.0,M,45.4,M,,*65
$GNGGA,101109.00,5051.95945,N,00005.26507,W,1,12,0.80,63.0,M,45.4,M,,*65
$GNGGA,101109.00,5051.95945,N,00005.26507,W,1,12,0.80,63.0,M,45.4,M,,*65
$GNGGA,101109.00,5051.95945,N,00005.26507,W,1,12,0.80,63.0,M,45.4,M,,*65
$GNGGA,101110.00,5051.95907,N,00005.26493,W,1,12,0.79,63.4,M,45.4,M,,*65
$GNGGA,101110.00,5051.95907,N,00005.26493,W,1,12,0.79,63.4,M,45.4,M,,*65
$GNGGA,101110.00,5051.95907,N,00005.26493,W,1,12,0.79,63.4,M,45.4,M,,*65
$GNGGA,101110.00,5051.95907,N,00005.26493,W,1,12,0.79,63.4,M,45.4,M,,*65
$GNGGA,101110.00,5051.95907,N,00005.26493,W,1,12,0.79,63.4,M,45.4,M,,*65
$GNGGA,101110.00,5051.95907,N,00005.26493,W,1,12,0.79,63.4,M,45.4,M,,*65
$GNGGA,101110.00,5051.95907,N,00005.26493,W,1,12,0.79,63.4,M,45.4,M,,*65
$GNGGA,101110.00,5051.95907,N,00005.26493,W,1,12,0.79,63.4,M,45.4,M,,*65
$GNGGA,101110.00,5051.95907,N,00005.26493,W,1,12,0.79,63.4,M,45.4,M,,*65
$GNGGA,101110.00,5051.95907,N,00005.26493,W,1,12,0.79,63.4,M,45.4,M,,*65
$GNGGA,101110.00,5051.95907,N,00005.26493,W,1,12,0.79,63.4,M,45.4,M,,*65
$GNGGA,101110.00,5051.95907,N,00005.26493,W,1,12,0.79,63.4,M,45.4,M,,*65
$GNGGA,101110.00,5051.95907,N,00005.26493,W,1,12,0.79,63.4,M,45.4,M,,*65
$GNGGA,101110.00,5051.95907,N,00005.26493,W,1,12,0.79,63.4,M,45.4,M,,*65
$GNGGA,101110.00,5051.95907,N,00005.26493,W,1,12,0.79,63.4,M,45.4,M,,*65
$GNGGA,101110.00,5051.95907,N,00005.26493,W,1,12,0.79,63.4,M,45.4,M,,*65
$GNGGA,101110.00,5051.95907,N,00005.26493,W,1,12,0.79,63.4,M,45.4,M,,*65
$GNGGA,101110.00,5051.95907,N,00005.26493,W,1,12,0.79,63.4,M,45.4,M,,*65
$GNGGA,101110.00,5051.95907,N,00005.26493,W,1,12,0.79,63.4,M,45.4,M,,*65
$GNGGA,101110.00,5051.95907,N,00005.26493,W,1,12,0.79,63.4,M,45.4,M,,*65
$GNGGA,101110.00,5051.95907,N,00005.26493,W,1,12,0.79,63.4,M,45.4,M,,*65
$GNGGA,101110.00,5051.95907,N,00005.26493,W,1,12,0.79,63.4,M,45.4,M,,*65
$GNGGA,101110.00,5051.95907,N,00005.26493,W,1,12,0.79,63.4,M,45.4,M,,*65
$GNGGA,101110.00,5051.95907,N,00005.26493,W,1,12,0.79,63.4,M,45.4,M,,*65
$GNGGA,101110.00,5051.95907,N,00005.26493,W,1,12,0.79,63.4,M,45.4,M,,*65
$GNGGA,101110.00,5051.95907,N,00005.26493,W,1,12,0.79,63.4,M,45.4,M,,*65
$GNGGA,101110.00,5051.95907,N,00005.26493,W,1,12,0.79,63.4,M,45.4,M,,*65
$GNGGA,101110.00,5051.95907,N,00005.26493,W,1,12,0.79,63.4,M,45.4,M,,*65
$GNGGA,101110.00,5051.95907,N,00005.26493,W,1,12,0.79,63.4,M,45.4,M,,*65
